state,city,station,,latitude,longitude,pollutant_id,pollutant_min,pollutant_max,pollutant_avg
Bihar,Arrah,"New DM Office, Arrah - BSPCB",,25.5626095,84.663264,SO2,8,10,9
Bihar,Aurangabad,"Gurdeo Nagar, Aurangabad - BSPCB",,24.75746,84.366208,NO2,2,3,2
Bihar,Begusarai,"Lohiyanagar, Begusarai - BSPCB",,25.42742023,86.13886079,NO2,32,117,68
Bihar,Bettiah,"Kamalnath Nagar, Bettiah - BSPCB",,26.80365,84.51954,NH3,4,6,5
Bihar,Bettiah,"Kamalnath Nagar, Bettiah - BSPCB",,26.80365,84.51954,OZONE,22,28,27
Bihar,Bhagalpur,"DM Office_Kachari Chowk, Bhagalpur - BSPCB",,25.251013,86.989001,SO2,40,69,55
Assam,Guwahati,"LGBI Airport, Guwahati - PCBA",,26.10887,91.589544,CO,8,54,20
Assam,Guwahati,"Pan Bazaar, Guwahati - PCBA",,26.1875,91.744194,SO2,26,52,37
Assam,Nagaon,"Christianpatty, Nagaon - PCBA",,26.349082,92.68449,PM10,25,163,83
Assam,Nalbari,"Bata Chowk, Nalbari - PCBA",,26.446912,91.439057,PM10,97,500,261
Bihar,Bhagalpur,"Mayaganj, Bhagalpur - BSPCB",,25.265194,87.012947,SO2,22,55,43
Bihar,Bhagalpur,"Mayaganj, Bhagalpur - BSPCB",,25.265194,87.012947,CO,25,61,37
Bihar,Bihar Sharif,"D M Colony, Bihar Sharif - BSPCB",,25.204762,85.51496,SO2,8,10,10
Bihar,Buxar,"Charitra Van, Buxar - BSPCB",,25.56752,83.966379,PM2.5,7,263,93
Bihar,Buxar,"Charitra Van, Buxar - BSPCB",,25.56752,83.966379,NO2,4,5,5
Bihar,Chhapra,"Darshan Nagar, Chhapra - BSPCB",,25.7808257,84.7446768,PM2.5,38,220,104
Andaman and Nicobar,Sri Vijaya Puram,"Police Line, Sri Vijaya Puram - ANPCC",,11.654054,92.734055,OZONE,4,65,50
Andhra_Pradesh,Anantapur,"Gulzarpet, Anantapur - APPCB",,14.675886,77.593027,PM10,25,167,62
Andhra_Pradesh,Anantapur,"Gulzarpet, Anantapur - APPCB",,14.675886,77.593027,NO2,25,43,30
Andhra_Pradesh,Anantapur,"Gulzarpet, Anantapur - APPCB",,14.675886,77.593027,CO,14,18,18
Andhra_Pradesh,Chittoor,"Gangineni Cheruvu, Chittoor - APPCB",,13.20488,79.097889,SO2,2,3,3
Andhra_Pradesh,Chittoor,"Gangineni Cheruvu, Chittoor - APPCB",,13.20488,79.097889,CO,6,14,6
Bihar,Gaya,"Collectorate, Gaya - BSPCB",,24.7955,84.9994,NO2,4,12,8
Bihar,Gaya,"Collectorate, Gaya - BSPCB",,24.7955,84.9994,OZONE,19,21,20
Bihar,Gaya,"Kareemganj, Gaya - BSPCB",,24.792403,84.992416,OZONE,1,19,9
Bihar,Gaya,"SFTI Kusdihra, Gaya - BSPCB",,24.762518,84.982348,PM2.5,20,71,49
Bihar,Gaya,"SFTI Kusdihra, Gaya - BSPCB",,24.762518,84.982348,SO2,8,9,8
Bihar,Hajipur,"Industrial Area, Hajipur - BSPCB",,25.697189,85.2459,PM10,106,207,152
Andhra_Pradesh,Vijayawada,"HB Colony, Vijayawada - APPCB",,16.536107,80.594233,NO2,12,12,12
Andhra_Pradesh,Vijayawada,"Kanuru, Vijayawada - APPCB",,16.486692,80.699436,NO2,12,264,68
Andhra_Pradesh,Vijayawada,"Kanuru, Vijayawada - APPCB",,16.486692,80.699436,OZONE,12,26,12
Andhra_Pradesh,Vijayawada,"Rajiv Nagar, Vijayawada - APPCB",,16.554731,80.64911,SO2,18,26,21
Andhra_Pradesh,Visakhapatnam,"GVM Corporation, Visakhapatnam - APPCB",,17.72,83.3,PM10,45,177,90
Andhra_Pradesh,Visakhapatnam,"GVM Corporation, Visakhapatnam - APPCB",,17.72,83.3,SO2,6,12,8
Andhra_Pradesh,Kadapa,"Yerramukkapalli, Kadapa - APPCB",,14.465052,78.824187,NH3,4,6,5
Andhra_Pradesh,Tirumala,"Toll Gate, Tirumala - APPCB (Formerly known as Tirumala, Tirupati - APPCB)",,13.67,79.35,NH3,1,2,2
Andhra_Pradesh,Tirumala,"Toll Gate, Tirumala - APPCB (Formerly known as Tirumala, Tirupati - APPCB)",,13.67,79.35,CO,3,132,61
Andhra_Pradesh,Tirumala,"Toll Gate, Tirumala - APPCB (Formerly known as Tirumala, Tirupati - APPCB)",,13.67,79.35,OZONE,14,64,55
Assam,Sivasagar,"Girls College, Sivasagar - PCBA",,26.987634,94.636574,CO,2,44,14
Assam,Sivasagar,"Girls College, Sivasagar - PCBA",,26.987634,94.636574,OZONE,1,34,21
Bihar,Araria,"Kharahiya Basti, Araria - BSPCB",,26.146529,87.454184,CO,21,84,27
Andaman and Nicobar,Sri Vijaya Puram,"Police Line, Sri Vijaya Puram - ANPCC",,11.654054,92.734055,PM2.5,10,35,22
Chhattisgarh,Chhal,"Nawapara SECL Colony, Chhal - CECB",,22.118125,83.140608,CO,26,66,39
Chhattisgarh,Chhal,"Nawapara SECL Colony, Chhal - CECB",,22.118125,83.140608,OZONE,34,60,50
Chhattisgarh,Korba,"Rampur, Korba - CECB",,22.368195,82.746431,PM2.5,57,122,83
Chhattisgarh,Korba,"Rampur, Korba - CECB",,22.368195,82.746431,PM10,45,120,67
Chhattisgarh,Korba,"Rampur, Korba - CECB",,22.368195,82.746431,SO2,17,51,23
Chhattisgarh,Korba,"Urja Nagar, Korba - CECB",,22.348441,82.549611,PM2.5,39,280,77
Chhattisgarh,Korba,"Urja Nagar, Korba - CECB",,22.348441,82.549611,PM10,71,430,122
Chhattisgarh,Korba,"Urja Nagar, Korba - CECB",,22.348441,82.549611,SO2,8,61,17
Chhattisgarh,Kunjemura,"OP Jindal School, Kunjemura - CECB",,22.12665,83.483212,CO,28,34,31
Chhattisgarh,Kunjemura,"OP Jindal School, Kunjemura - CECB",,22.12665,83.483212,OZONE,8,8,8
Bihar,Muzaffarpur,"Buddha Colony, Muzaffarpur - BSPCB",,26.11442,85.39813,SO2,3,16,7
Bihar,Muzaffarpur,"Buddha Colony, Muzaffarpur - BSPCB",,26.11442,85.39813,OZONE,9,41,34
Bihar,Muzaffarpur,"MIT-Daudpur Kothi, Muzaffarpur - BSPCB",,26.1403345,85.3650192,SO2,4,5,5
Bihar,Muzaffarpur,"Muzaffarpur Collectorate, Muzaffarpur - BSPCB",,26.1209,85.3647,PM2.5,38,122,75
Bihar,Patna,"DRM Office Danapur, Patna - BSPCB",,25.586562,85.043586,NO2,28,34,31
Bihar,Patna,"DRM Office Danapur, Patna - BSPCB",,25.586562,85.043586,OZONE,1,38,32
Bihar,Patna,"Govt. High School Shikarpur, Patna - BSPCB",,25.592539,85.227158,NH3,11,12,12
Chhattisgarh,Milupara,"Govt. Higher Secondary School, Milupara - CECB",,22.1910172,83.5197009,OZONE,18,28,26
Chhattisgarh,Raipur,"AIIMS, Raipur - CECB",,21.258815,81.578979,PM10,43,157,104
Chhattisgarh,Raipur,"AIIMS, Raipur - CECB",,21.258815,81.578979,CO,27,61,34
Chhattisgarh,Raipur,"Bhatagaon New ISBT, Raipur - CECB",,21.219665,81.630094,NH3,2,2,2
Chhattisgarh,Raipur,"Bhatagaon New ISBT, Raipur - CECB",,21.219665,81.630094,SO2,3,28,10
Chhattisgarh,Raipur,"Krishak Nagar, Raipur - CECB",,21.237755,81.705301,PM10,52,111,82
Chhattisgarh,Raipur,"Krishak Nagar, Raipur - CECB",,21.237755,81.705301,NO2,18,35,28
Bihar,Kishanganj,"SDM Office_Khagra, Kishanganj - BSPCB",,26.0881305,87.93840336,PM10,60,264,128
Bihar,Kishanganj,"SDM Office_Khagra, Kishanganj - BSPCB",,26.0881305,87.93840336,SO2,1,68,30
Bihar,Manguraha,"Forest Rest House, Manguraha - BSPCB",,27.308328,84.531742,PM10,25,124,65
Bihar,Motihari,"Gandak Colony, Motihari - BSPCB",,26.63086,84.90051,NH3,3,3,3
Bihar,Motihari,"Gandak Colony, Motihari - BSPCB",,26.63086,84.90051,CO,32,82,36
Bihar,Munger,"Town Hall, Munger - BSPCB",,25.376776,86.471523,NO2,44,46,45
Bihar,Rajgir,"Dangi Tola, Rajgir - BSPCB",,25.0328,85.41948,SO2,1,18,6
Bihar,Rajgir,"Dangi Tola, Rajgir - BSPCB",,25.0328,85.41948,OZONE,30,38,34
Bihar,Samastipur,"DM Office_Kasipur, Samastipur - BSPCB",,25.859655,85.77944,PM10,52,500,212
Bihar,Samastipur,"DM Office_Kasipur, Samastipur - BSPCB",,25.859655,85.77944,NH3,2,2,2
Bihar,Samastipur,"DM Office_Kasipur, Samastipur - BSPCB",,25.859655,85.77944,OZONE,4,9,7
Bihar,Sasaram,"Dada Peer, Sasaram - BSPCB",,24.952822,84.002396,PM10,57,164,93
Bihar,Sasaram,"Dada Peer, Sasaram - BSPCB",,24.952822,84.002396,SO2,5,5,5
Bihar,Siwan,"Chitragupta Nagar, Siwan - BSPCB",,26.2271665,84.3570427,PM10,37,386,156
Chandigarh,Chandigarh,"Sector 22, Chandigarh - CPCC",,30.735567,76.775714,SO2,17,43,26
Chandigarh,Chandigarh,"Sector 22, Chandigarh - CPCC",,30.735567,76.775714,CO,30,60,39
Chandigarh,Chandigarh,"Sector-25, Chandigarh - CPCC",,30.751462,76.762879,NH3,17,34,27
Chandigarh,Chandigarh,"Sector-25, Chandigarh - CPCC",,30.751462,76.762879,CO,14,56,20
Chhattisgarh,Tumidih,"OP Jindal Industrial Park, Tumidih - CECB",,22.06631475,83.33820077,OZONE,99,140,124
Delhi,Delhi,"Alipur, Delhi - DPCC",,28.815329,77.15301,NH3,11,13,12
Delhi,Delhi,"Anand Vihar, Delhi - DPCC",,28.647622,77.315809,SO2,3,37,23
Delhi,Delhi,"Anand Vihar, Delhi - DPCC",,28.647622,77.315809,CO,74,172,100
Chhattisgarh,Bhilai,"Civic Center, Bhilai - Bhilai Steel Plant",,21.185571,81.343175,NH3,2,2,2
Chhattisgarh,Bhilai,"Civic Center, Bhilai - Bhilai Steel Plant",,21.185571,81.343175,OZONE,7,27,21
Bihar,Patna,"IGSC Planetarium Complex, Patna - BSPCB",,25.610369,85.132568,CO,8,26,14
Bihar,Patna,"Muradpur, Patna - BSPCB",,25.619651,85.147382,SO2,6,8,7
Bihar,Patna,"Rajbansi Nagar, Patna - BSPCB",,25.599486,85.113666,PM2.5,48,155,103
Bihar,Purnia,"Mariam Nagar, Purnia - BSPCB",,25.366336,87.117468,PM2.5,65,347,198
Delhi,Delhi,"Dr. Karni Singh Shooting Range, Delhi - DPCC",,28.498571,77.26484,PM2.5,36,397,223
Delhi,Delhi,"Dr. Karni Singh Shooting Range, Delhi - DPCC",,28.498571,77.26484,NH3,7,10,8
Delhi,Delhi,"Dr. Karni Singh Shooting Range, Delhi - DPCC",,28.498571,77.26484,OZONE,6,190,150
Delhi,Delhi,"Dwarka-Sector 8, Delhi - DPCC ",,28.5710274,77.0719006,NO2,34,71,52
Delhi,Delhi,"Dwarka-Sector 8, Delhi - DPCC ",,28.5710274,77.0719006,NH3,10,17,13
Delhi,Delhi,"Dwarka-Sector 8, Delhi - DPCC ",,28.5710274,77.0719006,CO,24,127,40
Delhi,Delhi,"Dwarka-Sector 8, Delhi - DPCC ",,28.5710274,77.0719006,OZONE,5,87,70
Delhi,Delhi,"IHBAS, Dilshad Garden, Delhi - CPCB",,28.6811736,77.3025234,NO2,3,61,26
Delhi,Delhi,"IHBAS, Dilshad Garden, Delhi - CPCB",,28.6811736,77.3025234,NH3,10,14,12
Delhi,Delhi,"IHBAS, Dilshad Garden, Delhi - CPCB",,28.6811736,77.3025234,SO2,10,23,14
Gujarat,Ahmedabad,"Maninagar, Ahmedabad - GPCB",,23.002657,72.591912,NO2,29,36,30
Gujarat,Ahmedabad,"Raikhad, Ahmedabad - IITM",,23.020509,72.579261,OZONE,13,269,153
Gujarat,Ahmedabad,"Rakhial, Ahmedabad - IITM",,23.016834,72.625775,CO,13,36,22
Gujarat,Ahmedabad,"SVPI Airport Hansol, Ahmedabad - IITM",,23.076793,72.627874,OZONE,63,125,85
Delhi,Delhi,"Najafgarh, Delhi - DPCC",,28.570173,76.933762,NH3,8,11,9
Delhi,Delhi,"Narela, Delhi - DPCC",,28.822836,77.101981,PM10,102,428,256
Delhi,Delhi,"Narela, Delhi - DPCC",,28.822836,77.101981,NH3,6,9,7
Delhi,Delhi,"Narela, Delhi - DPCC",,28.822836,77.101981,OZONE,6,56,45
Delhi,Delhi,"Nehru Nagar, Delhi - DPCC",,28.56789,77.250515,NO2,48,123,85
Delhi,Delhi,"Okhla Phase-2, Delhi - DPCC",,28.530785,77.271255,PM10,109,500,269
Delhi,Delhi,"Okhla Phase-2, Delhi - DPCC",,28.530785,77.271255,SO2,10,80,30
Delhi,Delhi,"Okhla Phase-2, Delhi - DPCC",,28.530785,77.271255,CO,44,108,69
Delhi,Delhi,"Sri Aurobindo Marg, Delhi - DPCC",,28.531346,77.190156,NH3,5,8,6
Delhi,Delhi,"Vivek Vihar, Delhi - DPCC",,28.672342,77.31526,PM2.5,77,401,253
Delhi,Delhi,"Vivek Vihar, Delhi - DPCC",,28.672342,77.31526,OZONE,5,311,224
Delhi,Delhi,"Wazirpur, Delhi - DPCC",,28.699793,77.165453,NO2,56,182,115
Delhi,Delhi,"ITO, Delhi - CPCB",,28.628624,77.24106,CO,32,136,44
Delhi,Delhi,"Jahangirpuri, Delhi - DPCC",,28.73282,77.170633,PM2.5,72,458,251
Delhi,Delhi,"Jawaharlal Nehru Stadium, Delhi - DPCC",,28.58028,77.233829,PM2.5,28,302,170
Delhi,Delhi,"Jawaharlal Nehru Stadium, Delhi - DPCC",,28.58028,77.233829,NO2,36,117,84
Delhi,Delhi,"Jawaharlal Nehru Stadium, Delhi - DPCC",,28.58028,77.233829,OZONE,2,96,82
Delhi,Delhi,"Lodhi Road, Delhi - IITM",,28.588333,77.221667,PM10,88,178,140
Delhi,Delhi,"NSIT Dwarka, Delhi - CPCB",,28.60909,77.0325413,PM2.5,48,262,153
Delhi,Delhi,"NSIT Dwarka, Delhi - CPCB",,28.60909,77.0325413,PM10,99,200,152
Delhi,Delhi,"NSIT Dwarka, Delhi - CPCB",,28.60909,77.0325413,NH3,6,9,8
Delhi,Delhi,"NSIT Dwarka, Delhi - CPCB",,28.60909,77.0325413,CO,17,90,65
Delhi,Delhi,"NSIT Dwarka, Delhi - CPCB",,28.60909,77.0325413,OZONE,18,66,53
Delhi,Delhi,"Najafgarh, Delhi - DPCC",,28.570173,76.933762,NO2,56,148,99
Delhi,Delhi,"Aya Nagar, Delhi - IMD",,28.4706914,77.1099364,CO,20,106,37
Delhi,Delhi,"Bawana, Delhi - DPCC",,28.7762,77.051074,PM2.5,75,439,258
Delhi,Delhi,"CRRI Mathura Road, Delhi - IMD",,28.5512005,77.2735737,PM10,112,417,272
Delhi,Delhi,"CRRI Mathura Road, Delhi - IMD",,28.5512005,77.2735737,CO,28,135,44
Delhi,Delhi,"CRRI Mathura Road, Delhi - IMD",,28.5512005,77.2735737,OZONE,74,248,172
Delhi,Delhi,"Rohini, Delhi - DPCC",,28.732528,77.11992,NH3,6,16,12
Delhi,Delhi,"Shadipur, Delhi - CPCB",,28.6514781,77.1473105,NO2,67,83,75
Delhi,Delhi,"Sonia Vihar, Delhi - DPCC",,28.710508,77.249485,PM10,119,349,203
Delhi,Delhi,"Pusa, Delhi - DPCC",,28.639652,77.146275,CO,3,64,10
Delhi,Delhi,"Pusa, Delhi - DPCC",,28.639652,77.146275,OZONE,3,52,37
Delhi,Delhi,"R K Puram, Delhi - DPCC",,28.563262,77.186937,PM10,100,406,215
Haryana,Panchgaon,"Amity University, Panchgaon - IITM",,28.3153,76.9143,CO,2,34,11
Himachal Pradesh,Baddi,"HIMUDA Complex Phase-1, Baddi - HPPCB",,30.943887,76.801991,PM2.5,60,190,93
Jammu_and_Kashmir,Srinagar,"Rajbagh, Srinagar - JKSPCB",,34.066206,74.81982,CO,12,20,17
Karnataka,Belgaum,"Ramteerth Nagar, Belgaum - KSPCB",,15.888653,74.541751,PM2.5,24,46,32
Karnataka,Belgaum,"Ramteerth Nagar, Belgaum - KSPCB",,15.888653,74.541751,SO2,15,16,15
Karnataka,Bengaluru,"Bapuji Nagar, Bengaluru - KSPCB",,12.951913,77.539784,NO2,14,19,16
Karnataka,Bengaluru,"Bapuji Nagar, Bengaluru - KSPCB",,12.951913,77.539784,SO2,17,37,27
Karnataka,Bengaluru,"City Railway Station, Bengaluru - KSPCB",,12.9756843,77.5660749,PM10,88,101,94
Karnataka,Bengaluru,"Hebbal, Bengaluru - KSPCB",,13.029152,77.585901,NO2,62,75,69
Karnataka,Bengaluru,"Hebbal, Bengaluru - KSPCB",,13.029152,77.585901,CO,4,36,28
Karnataka,Bengaluru,"Hombegowda Nagar, Bengaluru - KSPCB",,12.938539,77.5901,PM10,34,70,46
Karnataka,Bengaluru,"Jayanagar 5th Block, Bengaluru - KSPCB",,12.920984,77.584908,CO,2,46,18
Karnataka,Bengaluru,"Jayanagar 5th Block, Bengaluru - KSPCB",,12.920984,77.584908,OZONE,12,25,18
Karnataka,Bengaluru,"Jigani, Bengaluru - KSPCB",,12.7816279,77.6299145,PM2.5,5,196,69
Karnataka,Bengaluru,"Jigani, Bengaluru - KSPCB",,12.7816279,77.6299145,CO,15,180,98
Karnataka,Bengaluru,"Kasturi Nagar, Bengaluru - KSPCB",,13.003872,77.664217,PM2.5,36,39,37
Karnataka,Bengaluru,"Kasturi Nagar, Bengaluru - KSPCB",,13.003872,77.664217,NO2,15,41,32
Karnataka,Bengaluru,"Peenya, Bengaluru - CPCB",,13.0270199,77.494094,PM2.5,28,91,65
Karnataka,Bengaluru,"Peenya, Bengaluru - CPCB",,13.0270199,77.494094,NH3,3,4,3
Karnataka,Bengaluru,"RVCE-Mailasandra, Bengaluru - KSPCB",,12.921418,77.502466,PM2.5,55,57,56
Karnataka,Bengaluru,"Sanegurava Halli, Bengaluru - KSPCB",,12.990328,77.5431385,NO2,21,38,25
Haryana,Faridabad,"Sector 11, Faridabad - HSPCB",,28.376058,77.315741,OZONE,20,21,20
Haryana,Faridabad,"Sector 30, Faridabad - HSPCB",,28.4417,77.3217,SO2,6,6,6
Haryana,Gurugram,"NISE Gwal Pahari, Gurugram - IMD",,28.422681,77.148944,PM10,9,255,150
Haryana,Gurugram,"NISE Gwal Pahari, Gurugram - IMD",,28.422681,77.148944,CO,8,57,17
Haryana,Gurugram,"NISE Gwal Pahari, Gurugram - IMD",,28.422681,77.148944,OZONE,15,93,69
Haryana,Gurugram,"Sector-51, Gurugram - HSPCB",,28.4227,77.0667,OZONE,10,45,38
Gujarat,Vapi,"Phase-1 GIDC, Vapi - GPCB",,20.362421,72.918013,OZONE,2,2,2
Haryana,Charkhi Dadri,"Mini Secretariat, Charkhi Dadri - HSPCB",,28.593883,76.270653,NO2,14,25,18
Haryana,Faridabad,"New Industrial Town, Faridabad - HSPCB",,28.39072,77.30059,SO2,1,133,14
Haryana,Faridabad,"New Industrial Town, Faridabad - HSPCB",,28.39072,77.30059,CO,15,64,21
Haryana,Faridabad,"Sector 11, Faridabad - HSPCB",,28.376058,77.315741,NO2,30,32,31
Karnataka,Bengaluru,"Silk Board, Bengaluru - KSPCB",,12.917348,77.622813,PM10,54,163,99
Karnataka,Bengaluru,"Silk Board, Bengaluru - KSPCB",,12.917348,77.622813,NO2,14,63,30
Karnataka,Bengaluru,"Silk Board, Bengaluru - KSPCB",,12.917348,77.622813,SO2,3,10,6
Karnataka,Bengaluru,"Silk Board, Bengaluru - KSPCB",,12.917348,77.622813,CO,2,76,27
Karnataka,Chamarajanagar,"Urban, Chamarajanagar - KSPCB",,11.55358,76.55521,NH3,1,3,2
Karnataka,Chikkaballapur,"Chikkaballapur Rural, Chikkaballapur - KSPCB",,13.428828,77.731418,CO,3,22,13
Karnataka,Dharwad,"Kalabhavan, Dharwad - KSPCB",,15.459706,75.008381,OZONE,6,31,19
Karnataka,Davanagere,"Devaraj Urs Badavane, Davanagere - KSPCB",,14.4758,75.9052,NO2,8,15,12
Karnataka,Dharwad,"Kalabhavan, Dharwad - KSPCB",,15.459706,75.008381,CO,32,106,68
Gujarat,Ankleshwar,"GIDC, Ankleshwar - GPCB",,21.613267,73.010555,PM2.5,55,293,133
Karnataka,Madikeri,"Stuart Hill, Madikeri - KSPCB",,12.415911,75.73505,CO,10,20,13
Karnataka,Mysuru,"Hebbal 1st Stage, Mysuru - KSPCB",,12.21041,76.37376,NH3,3,6,5
Karnataka,Mysuru,"Hebbal 1st Stage, Mysuru - KSPCB",,12.21041,76.37376,SO2,2,5,4
Karnataka,Ramanagara,"Vijay Nagar, Ramanagara - KSPCB",,12.733409,77.298051,PM2.5,32,79,56
Karnataka,Ramanagara,"Vijay Nagar, Ramanagara - KSPCB",,12.733409,77.298051,NO2,2,4,3
Karnataka,Ramanagara,"Vijay Nagar, Ramanagara - KSPCB",,12.733409,77.298051,NH3,1,1,1
Karnataka,Ramanagara,"Vijay Nagar, Ramanagara - KSPCB",,12.733409,77.298051,OZONE,6,188,115
Karnataka,Shivamogga,"Vinoba Nagara, Shivamogga - KSPCB",,13.94,75.555917,PM2.5,27,47,37
Karnataka,Shivamogga,"Vinoba Nagara, Shivamogga - KSPCB",,13.94,75.555917,PM10,45,63,56
Karnataka,Shivamogga,"Vinoba Nagara, Shivamogga - KSPCB",,13.94,75.555917,NO2,17,29,26
Karnataka,Shivamogga,"Vinoba Nagara, Shivamogga - KSPCB",,13.94,75.555917,CO,8,30,24
Karnataka,Shivamogga,"Vinoba Nagara, Shivamogga - KSPCB",,13.94,75.555917,OZONE,26,95,51
Kerala,Thiruvananthapuram,"Plammoodu, Thiruvananthapuram - Kerala PCB",,8.5149093,76.9435879,CO,14,23,17
Kerala,Thiruvananthapuram,"Plammoodu, Thiruvananthapuram - Kerala PCB",,8.5149093,76.9435879,OZONE,16,38,21
Kerala,Thrissur,"Corporation Ground, Thrissur - Kerala PCB",,10.5324,76.2159,PM10,55,66,61
Kerala,Thrissur,"Corporation Ground, Thrissur - Kerala PCB",,10.5324,76.2159,OZONE,28,33,32
Madhya Pradesh,Bhopal,"Idgah Hills, Bhopal - MPPCB",,23.264759,77.381568,PM2.5,17,67,41
Madhya Pradesh,Bhopal,"Idgah Hills, Bhopal - MPPCB",,23.264759,77.381568,PM10,61,102,80
Madhya Pradesh,Bhopal,"Idgah Hills, Bhopal - MPPCB",,23.264759,77.381568,SO2,1,17,8
Madhya Pradesh,Bhopal,"Paryavaran Parisar, Bhopal - MPPCB",,23.210494,77.425409,PM2.5,13,307,83
Madhya Pradesh,Bhopal,"Paryavaran Parisar, Bhopal - MPPCB",,23.210494,77.425409,NH3,3,40,10
Madhya Pradesh,Bhopal,"Paryavaran Parisar, Bhopal - MPPCB",,23.210494,77.425409,OZONE,10,75,58
Madhya Pradesh,Bhopal,"T T Nagar, Bhopal - MPPCB",,23.233584,77.400574,NO2,24,57,37
Madhya Pradesh,Bhopal,"T T Nagar, Bhopal - MPPCB",,23.233584,77.400574,SO2,12,39,27
Madhya Pradesh,Katni,"Gole Bazar, Katni - MPPCB",,23.50016,80.23284,OZONE,6,132,113
Madhya Pradesh,Maihar,"Sahilara, Maihar - KJS Cements",,24.2613009,80.7231783,SO2,8,8,8
Madhya Pradesh,Maihar,"Sahilara, Maihar - KJS Cements",,24.2613009,80.7231783,CO,20,34,23
Madhya Pradesh,Mandideep,"Sector-D Industrial Area, Mandideep - MPPCB",,23.10844,77.511428,NO2,23,221,89
Madhya Pradesh,Mandideep,"Sector-D Industrial Area, Mandideep - MPPCB",,23.10844,77.511428,OZONE,28,38,31
Madhya Pradesh,Pithampur,"Sector-2 Industrial Area, Pithampur - MPPCB",,22.624758,75.675238,NH3,3,7,4
Madhya Pradesh,Pithampur,"Sector-2 Industrial Area, Pithampur - MPPCB",,22.624758,75.675238,OZONE,46,188,167
Madhya Pradesh,Ratlam,"Shasthri Nagar, Ratlam - IPCA Lab",,23.331731,75.045981,SO2,15,20,17
Madhya Pradesh,Jabalpur,"Govindh Bhavan Colony, Jabalpur - JMC",,23.163174,79.973061,NH3,1,2,2
Madhya Pradesh,Jabalpur,"Suhagi, Jabalpur - JMC",,23.218135,79.95777,NH3,2,10,3
Madhya Pradesh,Jabalpur,"Suhagi, Jabalpur - JMC",,23.218135,79.95777,OZONE,5,79,57
Madhya Pradesh,Katni,"Gole Bazar, Katni - MPPCB",,23.50016,80.23284,NH3,2,4,3
Madhya Pradesh,Katni,"Gole Bazar, Katni - MPPCB",,23.50016,80.23284,CO,24,80,31
Karnataka,Yadgir,"Collector Office, Yadgir - KSPCB",,16.7602,77.1428,NH3,1,2,2
Kerala,Eloor,"Udyogamandal, Eloor - Kerala PCB",,10.073232,76.302765,PM10,43,84,60
Kerala,Eloor,"Udyogamandal, Eloor - Kerala PCB",,10.073232,76.302765,NO2,7,8,8
Kerala,Kannur,"Thavakkara, Kannur - Kerala PCB",,11.875,75.3732,NO2,14,18,16
Karnataka,Koppal,"Diwator Nagar, Koppal - KSPCB",,15.34763,76.181767,PM2.5,17,46,34
Karnataka,Koppal,"Diwator Nagar, Koppal - KSPCB",,15.34763,76.181767,NO2,5,21,11
Karnataka,Koppal,"Diwator Nagar, Koppal - KSPCB",,15.34763,76.181767,CO,24,34,30
Karnataka,Madikeri,"Stuart Hill, Madikeri - KSPCB",,12.415911,75.73505,PM2.5,18,36,27
Karnataka,Madikeri,"Stuart Hill, Madikeri - KSPCB",,12.415911,75.73505,NO2,89,139,116
Kerala,Kannur,"Thavakkara, Kannur - Kerala PCB",,11.875,75.3732,SO2,4,7,6
Kerala,Kannur,"Thavakkara, Kannur - Kerala PCB",,11.875,75.3732,OZONE,26,32,30
Kerala,Kollam,"Polayathode, Kollam - Kerala PCB",,8.8787,76.6073,SO2,2,3,2
Kerala,Kollam,"Polayathode, Kollam - Kerala PCB",,8.8787,76.6073,OZONE,32,37,36
Madhya Pradesh,Dewas,"Bhopal Chauraha, Dewas - MPPCB",,22.9682591,76.064118,NH3,5,9,7
Madhya Pradesh,Gwalior,"Maharaj Bada, Gwalior - MPPCB",,26.200388,78.147714,PM10,59,185,101
Madhya Pradesh,Indore,"Vijay Nagar Scheme-78, Indore - Glenmark",,22.76726,75.8871,SO2,27,30,28
Maharashtra,Malegaon,"Mahesh Nagar, Malegaon - MPCB",,20.555712,74.529236,CO,16,107,22
Maharashtra,Mumbai,"Borivali East, Mumbai - MPCB",,19.2243333,72.8658113,PM2.5,40,54,47
Maharashtra,Mumbai,"Borivali East, Mumbai - MPCB",,19.2243333,72.8658113,NH3,1,8,4
Maharashtra,Mumbai,"Borivali East, Mumbai - MPCB",,19.2243333,72.8658113,CO,6,32,20
Maharashtra,Mumbai,"Byculla, Mumbai - BMC",,18.9767,72.838,PM2.5,39,97,64
Maharashtra,Mumbai,"Byculla, Mumbai - BMC",,18.9767,72.838,PM10,53,98,72
Maharashtra,Mumbai,"Byculla, Mumbai - BMC",,18.9767,72.838,OZONE,2,94,75
Maharashtra,Dhule,"Deopur, Dhule - MPCB",,20.918946,74.776388,CO,10,108,16
Maharashtra,Jalna,"Old MIDC, Jalna - MPCB",,19.854616,75.905894,PM10,59,108,76
Maharashtra,Jalna,"Old MIDC, Jalna - MPCB",,19.854616,75.905894,SO2,1,3,2
Maharashtra,Jalna,"Old MIDC, Jalna - MPCB",,19.854616,75.905894,OZONE,30,86,68
Maharashtra,Kalyan,"Khadakpada, Kalyan - MPCB",,19.25292,73.142019,PM2.5,60,118,85
Maharashtra,Mumbai,"Chhatrapati Shivaji Intl. Airport (T2), Mumbai - MPCB",,19.10078,72.87462,NO2,27,42,32
Maharashtra,Mumbai,"Colaba, Mumbai - MPCB",,18.91,72.82,PM10,43,168,70
Maharashtra,Mumbai,"Ghatkopar, Mumbai - BMC",,19.083694,72.920967,NO2,22,78,42
Maharashtra,Mumbai,"Ghatkopar, Mumbai - BMC",,19.083694,72.920967,OZONE,4,58,45
Maharashtra,Mumbai,"Kandivali East, Mumbai - MPCB",,19.2058,72.8682,PM2.5,81,92,85
Madhya Pradesh,Sagar,"Deen Dayal Nagar, Sagar - MPPCB",,23.8640158,78.80289321,NO2,7,101,26
Madhya Pradesh,Singrauli,"Suryakiran Bhawan NCL, Singrauli - MPPCB",,24.10897,82.64558,PM2.5,37,318,123
Madhya Pradesh,Singrauli,"Suryakiran Bhawan NCL, Singrauli - MPPCB",,24.10897,82.64558,PM10,74,403,164
Madhya Pradesh,Singrauli,"Suryakiran Bhawan NCL, Singrauli - MPPCB",,24.10897,82.64558,NO2,6,130,49
Madhya Pradesh,Ujjain,"Mahakaleshwar Temple, Ujjain - MPPCB",,23.182719,75.768218,PM10,29,118,67
Madhya Pradesh,Ujjain,"Mahakaleshwar Temple, Ujjain - MPPCB",,23.182719,75.768218,CO,23,108,36
Maharashtra,Akola,"Ramdaspeth, Akola - MPCB",,20.719516,77.000253,PM2.5,35,98,60
Maharashtra,Akola,"Ramdaspeth, Akola - MPCB",,20.719516,77.000253,OZONE,4,97,75
Maharashtra,Amravati,"Shivneri Colony, Amravati - MPCB",,20.9402359,77.7895248,NO2,9,28,17
Maharashtra,Amravati,"Shri Shivaji Science College, Amaravati - MPCB",,20.939198,77.765701,OZONE,33,107,92
Maharashtra,Aurangabad,"MIDC Chilkalthana, Aurangabad - MPCB",,19.87562,75.38731,PM10,57,121,93
Maharashtra,Kolhapur,"Sinchan Bhavan, Kolhapur - MPCB",,16.7143745,74.2426398,CO,22,28,27
Maharashtra,Latur,"Sawe Wadi, Latur - MPCB",,18.39963,76.57452,NO2,12,106,36
Maharashtra,Mahad,"Kamble Tarf Birwadi, Mahad - MPCB",,18.1023399,73.4783687,NO2,11,34,16
Maharashtra,Malegaon,"Mahesh Nagar, Malegaon - MPCB",,20.555712,74.529236,PM10,65,207,118
Maharashtra,Mumbai,"Kandivali West, Mumbai - BMC",,19.215859,72.831718,SO2,1,4,2
Maharashtra,Mumbai,"Kherwadi_Bandra East, Mumbai - MPCB",,19.0632143,72.8456324,PM2.5,61,173,108
Maharashtra,Mumbai,"Kurla, Mumbai - MPCB",,19.0863,72.8888,PM2.5,52,84,61
Maharashtra,Bhiwandi,"Gokul Nagar, Bhiwandi - MPCB",,19.309073,73.057223,PM2.5,80,245,115
Maharashtra,Bhiwandi,"Gokul Nagar, Bhiwandi - MPCB",,19.309073,73.057223,SO2,13,25,18
Maharashtra,Aurangabad,"More Chowk Waluj, Aurangabad - MPCB",,19.8389439,75.244448,OZONE,63,157,127
Maharashtra,Aurangabad,"Rachnakar Colony, Aurangabad - MPCB",,19.863756,75.321188,PM10,65,195,111
Maharashtra,Badlapur,"Katrap, Badlapur - MPCB",,19.16485,73.23409,NH3,2,9,5
Maharashtra,Pimpri-Chinchwad,"Thergaon, Pimpri Chinchwad - MPCB",,18.616318,73.765797,PM10,93,150,119
Maharashtra,Pimpri-Chinchwad,"Thergaon, Pimpri Chinchwad - MPCB",,18.616318,73.765797,NO2,24,122,51
Maharashtra,Pimpri-Chinchwad,"Thergaon, Pimpri Chinchwad - MPCB",,18.616318,73.765797,CO,4,105,28
Maharashtra,Pune,"Hadapsar, Pune - IITM",,18.501793,73.927532,CO,33,85,74
Maharashtra,Pune,"Hadapsar, Pune - IITM",,18.501793,73.927532,OZONE,2,94,80
Maharashtra,Pune,"Katraj Dairy, Pune - MPCB",,18.45445,73.854155,PM10,65,135,97
Maharashtra,Mumbai,"Shivaji Nagar, Mumbai - BMC",,19.060498,72.923356,OZONE,1,69,52
Maharashtra,Mumbai,"Siddharth Nagar-Worli, Mumbai - IITM",,19.000083,72.813993,NO2,20,74,35
Maharashtra,Mumbai,"Vasai West, Mumbai - MPCB",,19.3832,72.8204,SO2,27,28,28
Maharashtra,Mumbai,"Vile Parle West, Mumbai - MPCB",,19.10861,72.83622,NH3,3,4,4
Maharashtra,Mumbai,"Worli, Mumbai - MPCB",,18.9936162,72.8128113,PM2.5,66,81,71
Maharashtra,Pimpri-Chinchwad,"Park Street Wakad, Pimpri Chinchwad - MPCB",,18.59051,73.77946,OZONE,61,82,68
Maharashtra,Mumbai,"Navy Nagar-Colaba, Mumbai - IITM",,18.897756,72.81332,PM10,72,119,94
Maharashtra,Mumbai,"Navy Nagar-Colaba, Mumbai - IITM",,18.897756,72.81332,OZONE,8,91,68
Maharashtra,Mumbai,"Sewri, Mumbai - BMC",,19.000084,72.85673,PM2.5,16,87,49
Maharashtra,Mumbai,"Shivaji Nagar, Mumbai - BMC",,19.060498,72.923356,NO2,15,54,28
Maharashtra,Nashik,"Gangapur Road, Nashik - MPCB",,20.0073285,73.7762427,NO2,8,42,20
Maharashtra,Nashik,"Hirawadi, Nashik - MPCB",,20.021503,73.813844,NO2,3,48,15
Maharashtra,Nashik,"MIDC Ambad, Nashik - MPCB",,19.95022,73.73148,PM10,96,408,162
Maharashtra,Pune,"Mhada Colony, Pune - IITM",,18.57304,73.927715,CO,32,129,59
Maharashtra,Pune,"Savitribai Phule Pune University, Pune - MPCB",,18.547056,73.826908,OZONE,99,138,123
Maharashtra,Navi Mumbai,"Kopripada-Vashi, Navi Mumbai - MPCB",,19.090337,73.014232,CO,17,31,22
Maharashtra,Navi Mumbai,"Sanpada, Navi Mumbai - MPCB",,19.0575752,73.0151367,CO,7,16,10
Maharashtra,Sangli,"Vijay Nagar, Sangli - MPCB",,16.5038,74.3623,OZONE,31,67,57
Maharashtra,Thane,"Kasarvadavali, Thane - MPCB",,19.26777,72.97182,PM2.5,47,307,93
Maharashtra,Nagpur,"Ambazari, Nagpur - MPCB",,21.121801,79.04952,NO2,1,146,26
Maharashtra,Nagpur,"Ambazari, Nagpur - MPCB",,21.121801,79.04952,CO,13,107,32
Maharashtra,Nagpur,"Mahal, Nagpur - MPCB",,21.14472,79.107595,NO2,22,110,49
Maharashtra,Nagpur,"Mahal, Nagpur - MPCB",,21.14472,79.107595,NH3,3,13,5
Maharashtra,Nagpur,"Mahal, Nagpur - MPCB",,21.14472,79.107595,SO2,13,63,43
Odisha,Barbil,"Forest Office, Barbil - OSPCB",,22.1166054,85.3945546,OZONE,2,19,11
Odisha,Baripada,"Meher Colony, Baripada - OSPCB",,21.941841,86.728318,PM10,46,79,65
Odisha,Baripada,"Meher Colony, Baripada - OSPCB",,21.941841,86.728318,NO2,7,40,20
Odisha,Baripada,"Meher Colony, Baripada - OSPCB",,21.941841,86.728318,NH3,5,7,6
Odisha,Baripada,"Meher Colony, Baripada - OSPCB",,21.941841,86.728318,SO2,18,36,28
Odisha,Baripada,"Meher Colony, Baripada - OSPCB",,21.941841,86.728318,OZONE,12,88,69
Odisha,Bhubaneswar,"Lingraj Mandir, Bhubaneswar - OSPCB",,20.24079,85.836784,SO2,1,8,4
Odisha,Bhubaneswar,"Lingraj Mandir, Bhubaneswar - OSPCB",,20.24079,85.836784,CO,38,84,49
Odisha,Bhubaneswar,"Patia, Bhubaneswar - OSPCB",,20.34652,85.8163,NO2,12,44,25
Odisha,Bhubaneswar,"Patia, Bhubaneswar - OSPCB",,20.34652,85.8163,CO,8,70,31
Maharashtra,Thane,"Upvan Fort, Thane - MPCB",,19.222279,72.957979,NO2,10,73,30
Maharashtra,Thane,"Upvan Fort, Thane - MPCB",,19.222279,72.957979,NH3,1,4,3
Maharashtra,Ulhasnagar,"Sidhi Vinayak Nagar, Ulhasnagar - MPCB",,19.235581,73.159121,PM2.5,54,147,92
Maharashtra,Virar,"Bolinj, Virar - MPCB",,19.445821,72.7988231,NH3,1,4,2
Meghalaya,Shillong,"JN Stadium, Shillong - Meghalaya PCB",,25.5803419,91.8942571,NO2,23,80,46
Meghalaya,Shillong,"JN Stadium, Shillong - Meghalaya PCB",,25.5803419,91.8942571,CO,19,82,32
Punjab,Ludhiana,"Punjab Agricultural University, Ludhiana - PPCB",,30.9028,75.8086,PM2.5,58,135,86
Punjab,Ludhiana,"Punjab Agricultural University, Ludhiana - PPCB",,30.9028,75.8086,PM10,70,127,98
Punjab,Patiala,"Model Town, Patiala - PPCB",,30.349388,76.366642,CO,36,72,40
Punjab,Rupnagar,"Ratanpura, Rupnagar - Ambuja Cements",,31.0325454,76.5623046,SO2,4,8,6
Rajasthan,Ajmer,"Civil Lines,  Ajmer - RSPCB",,26.470859,74.646594,NH3,6,8,7
Odisha,Bileipada,"Tata Township, Bileipada - OSPCB",,22.06156703,85.47409613,SO2,8,10,9
Odisha,Bileipada,"Tata Township, Bileipada - OSPCB",,22.06156703,85.47409613,CO,28,58,35
Odisha,Cuttack,"CDA Area, Cuttack - OSPCB",,20.48891,85.84768,NO2,9,64,28
Odisha,Nayagarh,"Dabuna, Nayagarh - OSPCB",,21.847279,85.416905,PM2.5,79,149,109
Odisha,Nayagarh,"Dabuna, Nayagarh - OSPCB",,21.847279,85.416905,CO,18,28,20
Nagaland,Kohima,"PWD Juction, Kohima - NPCB",,25.6635413,94.0989878,NH3,1,1,1
Nagaland,Kohima,"PWD Juction, Kohima - NPCB",,25.6635413,94.0989878,SO2,57,60,59
Nagaland,Kohima,"PWD Juction, Kohima - NPCB",,25.6635413,94.0989878,OZONE,7,25,19
Odisha,Angul,"Hakimapada, Angul - OSPCB",,20.832874,85.104082,PM2.5,47,315,103
Odisha,Angul,"Hakimapada, Angul - OSPCB",,20.832874,85.104082,SO2,12,122,62
Odisha,Angul,"Hakimapada, Angul - OSPCB",,20.832874,85.104082,OZONE,8,85,58
Odisha,Tensa,"Barsua Iron Ore Mines, Tensa - OSPCB",,21.869985,85.167016,SO2,34,39,36
Punjab,Amritsar,"Golden Temple, Amritsar - PPCB",,31.62,74.876512,CO,10,72,35
Punjab,Jalandhar,"Civil Line, Jalandhar - PPCB",,31.321907,75.578914,OZONE,12,53,37
Punjab,Khanna,"Kalal Majra, Khanna - PPCB",,30.736056,76.209694,NO2,25,30,28
Rajasthan,Banswara,"Rati Talai, Banswara - RSPCB",,23.55519,74.44001,PM2.5,34,147,63
Rajasthan,Baran,"Bamboliya, Baran - RSPCB",,25.106006,76.469948,PM2.5,8,316,57
Rajasthan,Baran,"Bamboliya, Baran - RSPCB",,25.106006,76.469948,NH3,3,6,4
Rajasthan,Baran,"Bamboliya, Baran - RSPCB",,25.106006,76.469948,CO,20,136,48
Rajasthan,Barmer,"Railway Colony, Barmer - RSPCB",,25.747299,71.393989,NO2,3,89,16
Odisha,Rourkela,"Fertilizer Township, Rourkela - OSPCB",,22.18972222,84.86277778,PM2.5,87,169,99
Odisha,Rourkela,"Fertilizer Township, Rourkela - OSPCB",,22.18972222,84.86277778,SO2,10,23,20
Odisha,Rourkela,"Fertilizer Township, Rourkela - OSPCB",,22.18972222,84.86277778,CO,2,127,81
Odisha,Suakati,"OMC Colony, Suakati - OSPCB",,21.606865,85.510538,PM2.5,54,224,74
Odisha,Suakati,"OMC Colony, Suakati - OSPCB",,21.606865,85.510538,PM10,40,269,85
Odisha,Suakati,"OMC Colony, Suakati - OSPCB",,21.606865,85.510538,SO2,2,22,6
Rajasthan,Bharatpur,"Krishna Nagar, Bharatpur - RSPCB",,27.215415,77.50873,CO,1,72,16
Rajasthan,Bhilwara,"Pratap Nagar, Bhilwara - RSPCB",,25.339605,74.618883,NO2,6,114,48
Rajasthan,Bhilwara,"Pratap Nagar, Bhilwara - RSPCB",,25.339605,74.618883,NH3,6,8,6
Rajasthan,Bhiwadi,"RIICO Ind. Area III, Bhiwadi - RSPCB",,28.194909,76.862296,CO,4,112,89
Rajasthan,Bhiwadi,"RIICO Ind. Area III, Bhiwadi - RSPCB",,28.194909,76.862296,OZONE,12,73,48
Rajasthan,Bikaner,"MM Ground, Bikaner - RSPCB",,28.018792,73.292658,PM2.5,25,184,54
Rajasthan,Chittorgarh,"Shastri Nagar, Chittorgarh - RSPCB",,24.892047,74.623527,OZONE,1,180,158
Rajasthan,Churu,"Subash Chowk, Churu - RSPCB",,28.296139,74.961696,NH3,3,8,6
Rajasthan,Dausa,"Khatikan Mohalla, Dausa - RSPCB",,26.895552,76.334753,NO2,34,123,71
Rajasthan,Dholpur,"Raja Ganj, Dholpur - RSPCB",,26.699557,77.898881,SO2,14,38,25
Rajasthan,Dungarpur,"Bhoiwada, Dungarpur - RSPCB",,23.837789,73.714926,OZONE,5,131,97
Rajasthan,Jaipur,"Adarsh Nagar, Jaipur - RSPCB",,26.902909,75.836858,OZONE,12,49,44
Rajasthan,Jaipur,"Mansarovar Sector-12, Jaipur - RSPCB",,26.843698,75.766894,NH3,1,4,3
Rajasthan,Jaipur,"RIICO Sitapura, Jaipur - RSPCB",,26.786682,75.827928,PM2.5,18,280,111
Rajasthan,Jaipur,"Sector-2 Murlipura, Jaipur - RSPCB",,26.960669,75.771817,PM10,58,161,104
Rajasthan,Jaipur,"Sector-2 Murlipura, Jaipur - RSPCB",,26.960669,75.771817,SO2,2,51,10
Rajasthan,Jaipur,"Shastri Nagar, Jaipur - RSPCB",,26.9502929,75.730943,PM2.5,47,180,91
Rajasthan,Jaipur,"Shastri Nagar, Jaipur - RSPCB",,26.9502929,75.730943,SO2,10,27,16
Rajasthan,Jaisalmer,"Sadar Bazar, Jaisalmer - RSPCB",,26.912329,70.909168,CO,6,42,12
Rajasthan,Jhunjhunu,"Indra Nagar, Jhunjhunu - RSPCB",,28.108988,75.386577,PM2.5,16,247,87
Rajasthan,Jodhpur,"Jhalamand, Jodhpur - RSPCB",,26.215415,73.070156,OZONE,18,196,133
Rajasthan,Jodhpur,"Mandor, Jodhpur - RSPCB",,26.358805,73.047444,PM2.5,19,97,47
Rajasthan,Jodhpur,"Mandor, Jodhpur - RSPCB",,26.358805,73.047444,PM10,60,163,98
Rajasthan,Jodhpur,"Mandor, Jodhpur - RSPCB",,26.358805,73.047444,OZONE,5,114,101
Rajasthan,Karauli,"Satyawati Vihar, Karauli - RSPCB",,26.506177,77.025989,OZONE,9,161,135
Rajasthan,Kota,"Dhanmandi, Kota - RSPCB",,25.16409,75.858137,PM2.5,30,277,110
Rajasthan,Kota,"Dhanmandi, Kota - RSPCB",,25.16409,75.858137,CO,16,109,29
Bihar,Arrah,"New DM Office, Arrah - BSPCB",,25.5626095,84.663264,NH3,1,1,1
Bihar,Arrah,"New DM Office, Arrah - BSPCB",,25.5626095,84.663264,OZONE,2,143,115
Bihar,Aurangabad,"Gurdeo Nagar, Aurangabad - BSPCB",,24.75746,84.366208,PM10,101,456,178
Bihar,Aurangabad,"Gurdeo Nagar, Aurangabad - BSPCB",,24.75746,84.366208,NH3,1,1,1
Bihar,Aurangabad,"Gurdeo Nagar, Aurangabad - BSPCB",,24.75746,84.366208,SO2,12,17,14
Bihar,Aurangabad,"Gurdeo Nagar, Aurangabad - BSPCB",,24.75746,84.366208,CO,18,29,21
Bihar,Aurangabad,"Gurdeo Nagar, Aurangabad - BSPCB",,24.75746,84.366208,OZONE,40,83,61
Bihar,Begusarai,"Lohiyanagar, Begusarai - BSPCB",,25.42742023,86.13886079,PM10,42,242,130
Bihar,Begusarai,"Lohiyanagar, Begusarai - BSPCB",,25.42742023,86.13886079,NH3,9,16,11
Bihar,Bettiah,"Kamalnath Nagar, Bettiah - BSPCB",,26.80365,84.51954,NO2,26,29,28
Andaman and Nicobar,Sri Vijaya Puram,"Police Line, Sri Vijaya Puram - ANPCC",,11.654054,92.734055,SO2,4,34,21
Andhra_Pradesh,Amaravati,"Secretariat, Amaravati - APPCB",,16.5150833,80.5181667,NO2,4,13,8
Andhra_Pradesh,Amaravati,"Secretariat, Amaravati - APPCB",,16.5150833,80.5181667,OZONE,11,71,55
Andhra_Pradesh,Anantapur,"Gulzarpet, Anantapur - APPCB",,14.675886,77.593027,PM2.5,26,254,63
Andhra_Pradesh,Anantapur,"Gulzarpet, Anantapur - APPCB",,14.675886,77.593027,OZONE,4,52,37
Andhra_Pradesh,Chittoor,"Gangineni Cheruvu, Chittoor - APPCB",,13.20488,79.097889,PM2.5,38,137,77
Andhra_Pradesh,Chittoor,"Gangineni Cheruvu, Chittoor - APPCB",,13.20488,79.097889,PM10,35,105,68
Andhra_Pradesh,Chittoor,"Gangineni Cheruvu, Chittoor - APPCB",,13.20488,79.097889,NH3,3,5,4
Bihar,Chhapra,"Darshan Nagar, Chhapra - BSPCB",,25.7808257,84.7446768,OZONE,6,104,70
Bihar,Gaya,"Collectorate, Gaya - BSPCB",,24.7955,84.9994,SO2,12,15,14
Bihar,Gaya,"Kareemganj, Gaya - BSPCB",,24.792403,84.992416,SO2,16,18,17
Bihar,Gaya,"Kareemganj, Gaya - BSPCB",,24.792403,84.992416,CO,4,146,23
Bihar,Gaya,"SFTI Kusdihra, Gaya - BSPCB",,24.762518,84.982348,PM10,39,79,60
Bihar,Gaya,"SFTI Kusdihra, Gaya - BSPCB",,24.762518,84.982348,NH3,3,4,3
Bihar,Bhagalpur,"Mayaganj, Bhagalpur - BSPCB",,25.265194,87.012947,NO2,8,14,10
Bihar,Bihar Sharif,"D M Colony, Bihar Sharif - BSPCB",,25.204762,85.51496,OZONE,19,47,32
Bihar,Buxar,"Charitra Van, Buxar - BSPCB",,25.56752,83.966379,CO,9,94,38
Bihar,Buxar,"Charitra Van, Buxar - BSPCB",,25.56752,83.966379,OZONE,4,172,117
Bihar,Chhapra,"Darshan Nagar, Chhapra - BSPCB",,25.7808257,84.7446768,SO2,3,38,17
Andhra_Pradesh,Vijayawada,"HB Colony, Vijayawada - APPCB",,16.536107,80.594233,CO,19,32,24
Andhra_Pradesh,Vijayawada,"HB Colony, Vijayawada - APPCB",,16.536107,80.594233,OZONE,4,32,23
Andhra_Pradesh,Vijayawada,"Kanuru, Vijayawada - APPCB",,16.486692,80.699436,NH3,4,6,5
Andhra_Pradesh,Vijayawada,"Rajiv Nagar, Vijayawada - APPCB",,16.554731,80.64911,NO2,13,17,15
Andhra_Pradesh,Vijayawada,"Rajiv Nagar, Vijayawada - APPCB",,16.554731,80.64911,OZONE,15,53,46
Andhra_Pradesh,Visakhapatnam,"GVM Corporation, Visakhapatnam - APPCB",,17.72,83.3,NH3,2,4,2
Andhra_Pradesh,Kadapa,"Yerramukkapalli, Kadapa - APPCB",,14.465052,78.824187,CO,30,34,34
Andhra_Pradesh,Kadapa,"Yerramukkapalli, Kadapa - APPCB",,14.465052,78.824187,OZONE,9,9,9
Andhra_Pradesh,Tirumala,"Toll Gate, Tirumala - APPCB (Formerly known as Tirumala, Tirupati - APPCB)",,13.67,79.35,NO2,14,27,20
Assam,Guwahati,"LGBI Airport, Guwahati - PCBA",,26.10887,91.589544,PM10,130,288,187
Assam,Guwahati,"LGBI Airport, Guwahati - PCBA",,26.10887,91.589544,NH3,11,22,17
Bihar,Araria,"Kharahiya Basti, Araria - BSPCB",,26.146529,87.454184,PM2.5,35,341,109
Bihar,Araria,"Kharahiya Basti, Araria - BSPCB",,26.146529,87.454184,PM10,47,279,115
Andaman and Nicobar,Sri Vijaya Puram,"Police Line, Sri Vijaya Puram - ANPCC",,11.654054,92.734055,NO2,16,48,33
Delhi,Delhi,"Alipur, Delhi - DPCC",,28.815329,77.15301,SO2,16,70,30
Delhi,Delhi,"Alipur, Delhi - DPCC",,28.815329,77.15301,OZONE,2,25,17
Delhi,Delhi,"Anand Vihar, Delhi - DPCC",,28.647622,77.315809,OZONE,4,88,49
Delhi,Delhi,"Ashok Vihar, Delhi - DPCC",,28.695381,77.181665,PM2.5,63,374,232
Delhi,Delhi,"Ashok Vihar, Delhi - DPCC",,28.695381,77.181665,PM10,135,375,247
Delhi,Delhi,"Ashok Vihar, Delhi - DPCC",,28.695381,77.181665,NO2,29,150,83
Delhi,Delhi,"Ashok Vihar, Delhi - DPCC",,28.695381,77.181665,NH3,8,10,8
Delhi,Delhi,"Aya Nagar, Delhi - IMD",,28.4706914,77.1099364,PM10,32,386,216
Delhi,Delhi,"Aya Nagar, Delhi - IMD",,28.4706914,77.1099364,OZONE,7,187,170
Delhi,Delhi,"Bawana, Delhi - DPCC",,28.7762,77.051074,SO2,9,82,25
Delhi,Delhi,"Bawana, Delhi - DPCC",,28.7762,77.051074,OZONE,6,300,191
Delhi,Delhi,"Burari Crossing, Delhi - IMD",,28.7256504,77.2011573,PM10,102,429,210
Bihar,Sasaram,"Dada Peer, Sasaram - BSPCB",,24.952822,84.002396,PM2.5,73,324,155
Bihar,Siwan,"Chitragupta Nagar, Siwan - BSPCB",,26.2271665,84.3570427,PM2.5,52,459,291
Bihar,Siwan,"Chitragupta Nagar, Siwan - BSPCB",,26.2271665,84.3570427,CO,73,113,99
Chandigarh,Chandigarh,"Sector 22, Chandigarh - CPCC",,30.735567,76.775714,PM2.5,68,170,104
Chandigarh,Chandigarh,"Sector 22, Chandigarh - CPCC",,30.735567,76.775714,PM10,63,149,99
Chandigarh,Chandigarh,"Sector 22, Chandigarh - CPCC",,30.735567,76.775714,OZONE,3,256,171
Chandigarh,Chandigarh,"Sector-25, Chandigarh - CPCC",,30.751462,76.762879,PM10,2,160,128
Chandigarh,Chandigarh,"Sector-25, Chandigarh - CPCC",,30.751462,76.762879,SO2,4,11,6
Chandigarh,Chandigarh,"Sector-25, Chandigarh - CPCC",,30.751462,76.762879,OZONE,1,113,94
Bihar,Muzaffarpur,"Buddha Colony, Muzaffarpur - BSPCB",,26.11442,85.39813,PM2.5,89,324,242
Bihar,Muzaffarpur,"Buddha Colony, Muzaffarpur - BSPCB",,26.11442,85.39813,CO,15,68,25
Bihar,Muzaffarpur,"MIT-Daudpur Kothi, Muzaffarpur - BSPCB",,26.1403345,85.3650192,NH3,2,2,2
Bihar,Muzaffarpur,"MIT-Daudpur Kothi, Muzaffarpur - BSPCB",,26.1403345,85.3650192,CO,70,109,85
Bihar,Muzaffarpur,"Muzaffarpur Collectorate, Muzaffarpur - BSPCB",,26.1209,85.3647,NO2,9,11,10
Bihar,Muzaffarpur,"Muzaffarpur Collectorate, Muzaffarpur - BSPCB",,26.1209,85.3647,CO,16,28,27
Bihar,Patna,"DRM Office Danapur, Patna - BSPCB",,25.586562,85.043586,PM10,87,463,239
Chhattisgarh,Bhilai,"32Bungalows, Bhilai - CECB",,21.194815,81.31477,NO2,12,102,50
Chhattisgarh,Bhilai,"32Bungalows, Bhilai - CECB",,21.194815,81.31477,SO2,14,123,50
Chhattisgarh,Bhilai,"Hathkhoj, Bhilai - CECB",,21.224231,81.40835,CO,6,25,15
Chhattisgarh,Bilaspur,"Mangala, Bilaspur - NTPC",,22.08815,82.13737,PM10,41,111,70
Chhattisgarh,Bilaspur,"Mangala, Bilaspur - NTPC",,22.08815,82.13737,NO2,17,26,23
Bihar,Purnia,"Mariam Nagar, Purnia - BSPCB",,25.366336,87.117468,NH3,3,3,3
Bihar,Saharsa,"Police Line, Saharsa - BSPCB",,25.892357,86.590325,PM10,34,252,115
Bihar,Saharsa,"Police Line, Saharsa - BSPCB",,25.892357,86.590325,CO,6,14,8
Bihar,Saharsa,"Police Line, Saharsa - BSPCB",,25.892357,86.590325,OZONE,23,40,27
Bihar,Samastipur,"DM Office_Kasipur, Samastipur - BSPCB",,25.859655,85.77944,NO2,1,3,2
Bihar,Samastipur,"DM Office_Kasipur, Samastipur - BSPCB",,25.859655,85.77944,CO,13,97,31
Chhattisgarh,Raipur,"Bhatagaon New ISBT, Raipur - CECB",,21.219665,81.630094,CO,28,104,34
Chhattisgarh,Raipur,"Bhatagaon New ISBT, Raipur - CECB",,21.219665,81.630094,OZONE,7,35,25
Chhattisgarh,Raipur,"Krishak Nagar, Raipur - CECB",,21.237755,81.705301,PM2.5,31,70,53
Chhattisgarh,Raipur,"Krishak Nagar, Raipur - CECB",,21.237755,81.705301,SO2,10,27,14
Chhattisgarh,Raipur,"Siltara Phase-II, Raipur - CECB",,21.371751,81.664929,SO2,10,72,28
Chhattisgarh,Raipur,"Siltara Phase-II, Raipur - CECB",,21.371751,81.664929,CO,10,31,11
Delhi,Delhi,"Alipur, Delhi - DPCC",,28.815329,77.15301,NO2,19,54,35
Bihar,Patna,"Govt. High School Shikarpur, Patna - BSPCB",,25.592539,85.227158,PM10,145,273,196
Bihar,Patna,"Govt. High School Shikarpur, Patna - BSPCB",,25.592539,85.227158,NO2,8,18,13
Bihar,Patna,"Govt. High School Shikarpur, Patna - BSPCB",,25.592539,85.227158,SO2,4,12,8
Bihar,Patna,"Muradpur, Patna - BSPCB",,25.619651,85.147382,PM2.5,171,316,251
Bihar,Patna,"Muradpur, Patna - BSPCB",,25.619651,85.147382,NO2,11,141,54
Bihar,Patna,"Muradpur, Patna - BSPCB",,25.619651,85.147382,OZONE,6,41,37
Bihar,Patna,"Rajbansi Nagar, Patna - BSPCB",,25.599486,85.113666,NO2,17,104,43
Bihar,Kishanganj,"SDM Office_Khagra, Kishanganj - BSPCB",,26.0881305,87.93840336,PM2.5,13,199,76
Bihar,Manguraha,"Forest Rest House, Manguraha - BSPCB",,27.308328,84.531742,NH3,1,1,1
Bihar,Manguraha,"Forest Rest House, Manguraha - BSPCB",,27.308328,84.531742,CO,24,163,101
Bihar,Manguraha,"Forest Rest House, Manguraha - BSPCB",,27.308328,84.531742,OZONE,9,12,10
Chhattisgarh,Korba,"Urja Nagar, Korba - CECB",,22.348441,82.549611,OZONE,35,36,36
Delhi,Delhi,"Jawaharlal Nehru Stadium, Delhi - DPCC",,28.58028,77.233829,SO2,11,24,17
Delhi,Delhi,"Jawaharlal Nehru Stadium, Delhi - DPCC",,28.58028,77.233829,CO,12,113,29
Delhi,Delhi,"Lodhi Road, Delhi - IITM",,28.588333,77.221667,NO2,44,234,100
Delhi,Delhi,"Lodhi Road, Delhi - IITM",,28.588333,77.221667,SO2,8,77,36
Delhi,Delhi,"Lodhi Road, Delhi - IMD",,28.5918245,77.2273074,NO2,7,17,11
Delhi,Delhi,"Lodhi Road, Delhi - IMD",,28.5918245,77.2273074,CO,20,66,25
Delhi,Delhi,"Lodhi Road, Delhi - IMD",,28.5918245,77.2273074,OZONE,6,112,98
Delhi,Delhi,"Major Dhyan Chand National Stadium, Delhi - DPCC",,28.611281,77.237738,OZONE,2,303,220
Delhi,Delhi,"Sonia Vihar, Delhi - DPCC",,28.710508,77.249485,SO2,12,36,22
Delhi,Delhi,"Sri Aurobindo Marg, Delhi - DPCC",,28.531346,77.190156,PM10,83,396,157
Delhi,Delhi,"Sri Aurobindo Marg, Delhi - DPCC",,28.531346,77.190156,OZONE,3,270,205
Delhi,Delhi,"Vivek Vihar, Delhi - DPCC",,28.672342,77.31526,PM10,133,396,234
Delhi,Delhi,"Vivek Vihar, Delhi - DPCC",,28.672342,77.31526,NO2,29,104,63
Delhi,Delhi,"Vivek Vihar, Delhi - DPCC",,28.672342,77.31526,CO,32,90,40
Delhi,Delhi,"Wazirpur, Delhi - DPCC",,28.699793,77.165453,PM2.5,75,416,254
Delhi,Delhi,"Wazirpur, Delhi - DPCC",,28.699793,77.165453,OZONE,8,312,247
Gujarat,Ahmedabad,"Gyaspur, Ahmedabad - IITM",,22.977134,72.553024,CO,12,20,16
Gujarat,Ahmedabad,"Gyaspur, Ahmedabad - IITM",,22.977134,72.553024,OZONE,26,188,133
Gujarat,Ahmedabad,"Maninagar, Ahmedabad - GPCB",,23.002657,72.591912,SO2,32,45,38
Gujarat,Ahmedabad,"Maninagar, Ahmedabad - GPCB",,23.002657,72.591912,OZONE,4,50,41
Gujarat,Ahmedabad,"Raikhad, Ahmedabad - IITM",,23.020509,72.579261,CO,3,121,21
Gujarat,Ahmedabad,"SVPI Airport Hansol, Ahmedabad - IITM",,23.076793,72.627874,CO,52,66,60
Gujarat,Ankleshwar,"GIDC, Ankleshwar - GPCB",,21.613267,73.010555,NO2,50,50,50
Gujarat,Ankleshwar,"GIDC, Ankleshwar - GPCB",,21.613267,73.010555,NH3,5,5,5
Delhi,Delhi,"IGI Airport (T3), Delhi - IMD",,28.5627763,77.1180053,NO2,65,135,106
Delhi,Delhi,"IHBAS, Dilshad Garden, Delhi - CPCB",,28.6811736,77.3025234,PM2.5,66,323,186
Delhi,Delhi,"ITO, Delhi - CPCB",,28.628624,77.24106,NH3,3,20,9
Delhi,Delhi,"Jahangirpuri, Delhi - DPCC",,28.73282,77.170633,SO2,8,65,30
Delhi,Delhi,"Chandni Chowk, Delhi - IITM",,28.656756,77.227234,NO2,24,67,40
Delhi,Delhi,"DTU, Delhi - CPCB",,28.7500499,77.1112615,NO2,43,59,51
Delhi,Delhi,"DTU, Delhi - CPCB",,28.7500499,77.1112615,CO,23,68,45
Delhi,Delhi,"Dr. Karni Singh Shooting Range, Delhi - DPCC",,28.498571,77.26484,NO2,34,132,79
Delhi,Delhi,"R K Puram, Delhi - DPCC",,28.563262,77.186937,PM2.5,50,369,225
Delhi,Delhi,"R K Puram, Delhi - DPCC",,28.563262,77.186937,NO2,13,104,51
Delhi,Delhi,"Rohini, Delhi - DPCC",,28.732528,77.11992,SO2,11,53,21
Delhi,Delhi,"Sirifort, Delhi - CPCB",,28.5504249,77.2159377,SO2,77,84,81
Delhi,Delhi,"Nehru Nagar, Delhi - DPCC",,28.56789,77.250515,SO2,2,44,19
Delhi,Delhi,"Okhla Phase-2, Delhi - DPCC",,28.530785,77.271255,OZONE,14,303,162
Delhi,Delhi,"Patparganj, Delhi - DPCC",,28.623763,77.287209,PM10,125,411,243
Delhi,Delhi,"Patparganj, Delhi - DPCC",,28.623763,77.287209,SO2,8,11,10
Delhi,Delhi,"Mundka, Delhi - DPCC",,28.684678,77.076574,NH3,6,9,7
Delhi,Delhi,"Narela, Delhi - DPCC",,28.822836,77.101981,PM2.5,69,405,261
Delhi,Delhi,"Nehru Nagar, Delhi - DPCC",,28.56789,77.250515,PM2.5,48,351,261
Gujarat,Gandhinagar,"Sector-10, Gandhinagar - GPCB",,23.221714,72.654328,CO,7,40,13
Gujarat,Surat,"Science Center, Surat - SMC",,21.170046,72.795405,NO2,15,21,18
Gujarat,Surat,"Science Center, Surat - SMC",,21.170046,72.795405,SO2,43,49,45
Gujarat,Vatva,"Phase-4 GIDC, Vatva - GPCB",,22.969611,72.6435,PM2.5,49,305,146
Gujarat,Vatva,"Phase-4 GIDC, Vatva - GPCB",,22.969611,72.6435,NH3,1,11,5
Gujarat,Vatva,"Phase-4 GIDC, Vatva - GPCB",,22.969611,72.6435,SO2,27,47,38
Gujarat,Vatva,"Phase-4 GIDC, Vatva - GPCB",,22.969611,72.6435,OZONE,1,3,2
Jharkhand,Dhanbad,"Sardar Patel Nagar, Dhanbad - JSPCB",,23.80569,86.44268,NO2,111,127,126
Jharkhand,Dhanbad,"Sardar Patel Nagar, Dhanbad - JSPCB",,23.80569,86.44268,SO2,1,36,27
Jharkhand,Dhanbad,"Sardar Patel Nagar, Dhanbad - JSPCB",,23.80569,86.44268,CO,2,2,2
Karnataka,Bengaluru,"BTM Layout, Bengaluru - CPCB",,12.9135218,77.5950804,PM2.5,36,62,47
Karnataka,Bengaluru,"BTM Layout, Bengaluru - CPCB",,12.9135218,77.5950804,NO2,36,41,38
Karnataka,Bengaluru,"BTM Layout, Bengaluru - CPCB",,12.9135218,77.5950804,CO,20,34,24
Karnataka,Bengaluru,"Bapuji Nagar, Bengaluru - KSPCB",,12.951913,77.539784,PM10,50,134,88
Karnataka,Bengaluru,"Bapuji Nagar, Bengaluru - KSPCB",,12.951913,77.539784,CO,26,102,69
Karnataka,Bengaluru,"City Railway Station, Bengaluru - KSPCB",,12.9756843,77.5660749,CO,48,100,66
Karnataka,Bengaluru,"Hebbal, Bengaluru - KSPCB",,13.029152,77.585901,PM2.5,30,67,48
Karnataka,Bengaluru,"Hebbal, Bengaluru - KSPCB",,13.029152,77.585901,PM10,58,88,71
Haryana,Charkhi Dadri,"Mini Secretariat, Charkhi Dadri - HSPCB",,28.593883,76.270653,CO,10,25,15
Haryana,Charkhi Dadri,"Mini Secretariat, Charkhi Dadri - HSPCB",,28.593883,76.270653,OZONE,14,17,16
Haryana,Faridabad,"New Industrial Town, Faridabad - HSPCB",,28.39072,77.30059,NO2,17,20,19
Haryana,Faridabad,"New Industrial Town, Faridabad - HSPCB",,28.39072,77.30059,NH3,8,9,9
Haryana,Faridabad,"Sector 11, Faridabad - HSPCB",,28.376058,77.315741,SO2,8,9,8
Haryana,Faridabad,"Sector 11, Faridabad - HSPCB",,28.376058,77.315741,CO,16,52,46
Haryana,Faridabad,"Sector 30, Faridabad - HSPCB",,28.4417,77.3217,PM10,97,102,100
Haryana,Gurugram,"NISE Gwal Pahari, Gurugram - IMD",,28.422681,77.148944,NO2,12,73,33
Karnataka,Gadag,"Panchal Nagar, Gadag - KSPCB",,15.411456,75.638133,NH3,1,3,2
Karnataka,Gadag,"Panchal Nagar, Gadag - KSPCB",,15.411456,75.638133,CO,42,46,43
Karnataka,Gadag,"Panchal Nagar, Gadag - KSPCB",,15.411456,75.638133,OZONE,19,54,46
Karnataka,Hubballi,"Lingaraj Nagar, Hubballi - KSPCB",,15.3714823,75.1160168,OZONE,18,23,21
Karnataka,Karwar,"KHB Colony, Karwar - KSPCB",,14.816666,74.141003,PM2.5,20,50,37
Karnataka,Chamarajanagar,"Urban, Chamarajanagar - KSPCB",,11.55358,76.55521,SO2,2,8,4
Karnataka,Chamarajanagar,"Urban, Chamarajanagar - KSPCB",,11.55358,76.55521,CO,16,120,29
Karnataka,Chamarajanagar,"Urban, Chamarajanagar - KSPCB",,11.55358,76.55521,OZONE,13,39,32
Karnataka,Chikkaballapur,"Chikkaballapur Rural, Chikkaballapur - KSPCB",,13.428828,77.731418,PM10,44,134,68
Karnataka,Davanagere,"Devaraj Urs Badavane, Davanagere - KSPCB",,14.4758,75.9052,NH3,2,13,3
Karnataka,Davanagere,"Devaraj Urs Badavane, Davanagere - KSPCB",,14.4758,75.9052,OZONE,19,22,20
Karnataka,Bengaluru,"Hombegowda Nagar, Bengaluru - KSPCB",,12.938539,77.5901,NH3,2,20,5
Karnataka,Bengaluru,"Jigani, Bengaluru - KSPCB",,12.7816279,77.6299145,PM10,46,121,81
Karnataka,Bengaluru,"Jigani, Bengaluru - KSPCB",,12.7816279,77.6299145,OZONE,28,32,29
Karnataka,Bengaluru,"Kasturi Nagar, Bengaluru - KSPCB",,13.003872,77.664217,NH3,3,8,6
Haryana,Panchgaon,"Amity University, Panchgaon - IITM",,28.3153,76.9143,OZONE,79,301,166
Himachal Pradesh,Baddi,"HIMUDA Complex Phase-1, Baddi - HPPCB",,30.943887,76.801991,PM10,80,201,120
Himachal Pradesh,Baddi,"HIMUDA Complex Phase-1, Baddi - HPPCB",,30.943887,76.801991,OZONE,86,224,185
Jammu_and_Kashmir,Srinagar,"Rajbagh, Srinagar - JKSPCB",,34.066206,74.81982,PM2.5,38,50,44
Karnataka,Bengaluru,"Sanegurava Halli, Bengaluru - KSPCB",,12.990328,77.5431385,PM10,38,41,39
Karnataka,Bengaluru,"Shivapura_Peenya, Bengaluru - KSPCB",,13.0246342,77.5080115,NH3,2,2,2
Karnataka,Bengaluru,"Shivapura_Peenya, Bengaluru - KSPCB",,13.0246342,77.5080115,OZONE,24,31,26
Karnataka,Chamarajanagar,"Urban, Chamarajanagar - KSPCB",,11.55358,76.55521,PM2.5,18,45,28
Karnataka,Karwar,"KHB Colony, Karwar - KSPCB",,14.816666,74.141003,NO2,9,11,10
Karnataka,Madikeri,"Stuart Hill, Madikeri - KSPCB",,12.415911,75.73505,NH3,1,11,1
Karnataka,Madikeri,"Stuart Hill, Madikeri - KSPCB",,12.415911,75.73505,OZONE,4,5,4
Karnataka,Mysuru,"Hebbal 1st Stage, Mysuru - KSPCB",,12.21041,76.37376,CO,11,41,18
Madhya Pradesh,Bhopal,"Idgah Hills, Bhopal - MPPCB",,23.264759,77.381568,CO,16,52,24
Madhya Pradesh,Bhopal,"Idgah Hills, Bhopal - MPPCB",,23.264759,77.381568,OZONE,55,123,112
Madhya Pradesh,Bhopal,"Paryavaran Parisar, Bhopal - MPPCB",,23.210494,77.425409,PM10,58,247,112
Madhya Pradesh,Bhopal,"Paryavaran Parisar, Bhopal - MPPCB",,23.210494,77.425409,SO2,5,41,11
Madhya Pradesh,Bhopal,"Paryavaran Parisar, Bhopal - MPPCB",,23.210494,77.425409,CO,4,72,23
Madhya Pradesh,Bhopal,"T T Nagar, Bhopal - MPPCB",,23.233584,77.400574,PM10,60,118,85
Madhya Pradesh,Bhopal,"T T Nagar, Bhopal - MPPCB",,23.233584,77.400574,NH3,17,30,21
Madhya Pradesh,Damoh,"Shrivastav Colony, Damoh - MPPCB",,23.81748678,79.446246,CO,20,27,22
Madhya Pradesh,Dewas,"Bhopal Chauraha, Dewas - MPPCB",,22.9682591,76.064118,PM2.5,12,122,44
Madhya Pradesh,Dewas,"Bhopal Chauraha, Dewas - MPPCB",,22.9682591,76.064118,NO2,46,126,90
Madhya Pradesh,Dewas,"Bhopal Chauraha, Dewas - MPPCB",,22.9682591,76.064118,CO,13,38,17
Madhya Pradesh,Gwalior,"City Center, Gwalior - MPPCB",,26.203442,78.193251,SO2,13,18,16
Madhya Pradesh,Gwalior,"City Center, Gwalior - MPPCB",,26.203442,78.193251,OZONE,25,162,119
Madhya Pradesh,Gwalior,"Deen Dayal Nagar, Gwalior - MPPCB",,26.259242,78.216432,PM10,49,200,112
Madhya Pradesh,Gwalior,"Deen Dayal Nagar, Gwalior - MPPCB",,26.259242,78.216432,NH3,6,8,7
Madhya Pradesh,Gwalior,"Deen Dayal Nagar, Gwalior - MPPCB",,26.259242,78.216432,CO,14,92,22
Madhya Pradesh,Gwalior,"Maharaj Bada, Gwalior - MPPCB",,26.200388,78.147714,NO2,3,5,4
Madhya Pradesh,Indore,"Airport Area, Indore - IMC",,22.7289,75.8076,PM2.5,23,96,45
Madhya Pradesh,Indore,"Airport Area, Indore - IMC",,22.7289,75.8076,OZONE,4,24,21
Madhya Pradesh,Indore,"Chhoti Gwaltoli, Indore - MPPCB",,22.431,75.5213,CO,44,121,62
Madhya Pradesh,Indore,"Regional Park, Indore - IMC",,22.678,75.8559,NO2,37,62,48
Madhya Pradesh,Jabalpur,"Marhatal, Jabalpur - MPPCB",,23.168606,79.932247,SO2,13,27,20
Madhya Pradesh,Jabalpur,"Marhatal, Jabalpur - MPPCB",,23.168606,79.932247,OZONE,7,110,89
Madhya Pradesh,Jabalpur,"Suhagi, Jabalpur - JMC",,23.218135,79.95777,PM2.5,13,65,38
Madhya Pradesh,Jabalpur,"Suhagi, Jabalpur - JMC",,23.218135,79.95777,SO2,14,34,25
Madhya Pradesh,Maihar,"Sahilara, Maihar - KJS Cements",,24.2613009,80.7231783,NO2,30,37,34
Madhya Pradesh,Mandideep,"Sector-D Industrial Area, Mandideep - MPPCB",,23.10844,77.511428,CO,48,66,54
Madhya Pradesh,Pithampur,"Sector-2 Industrial Area, Pithampur - MPPCB",,22.624758,75.675238,PM2.5,34,230,98
Madhya Pradesh,Indore,"Residency Area, Indore - IMC",,22.7084,75.8815,OZONE,9,29,24
Madhya Pradesh,Indore,"Vijay Nagar Scheme-78, Indore - Glenmark",,22.76726,75.8871,PM10,37,42,40
Madhya Pradesh,Indore,"Vijay Nagar Scheme-78, Indore - Glenmark",,22.76726,75.8871,NO2,27,28,27
Madhya Pradesh,Jabalpur,"Gupteshwar, Jabalpur - JMC",,23.142888,79.916147,SO2,12,14,13
Madhya Pradesh,Jabalpur,"Gupteshwar, Jabalpur - JMC",,23.142888,79.916147,OZONE,3,111,89
Madhya Pradesh,Jabalpur,"Marhatal, Jabalpur - MPPCB",,23.168606,79.932247,PM2.5,12,179,58
Madhya Pradesh,Jabalpur,"Marhatal, Jabalpur - MPPCB",,23.168606,79.932247,PM10,38,246,102
Madhya Pradesh,Jabalpur,"Marhatal, Jabalpur - MPPCB",,23.168606,79.932247,NO2,21,93,41
Maharashtra,Amravati,"Shivneri Colony, Amravati - MPCB",,20.9402359,77.7895248,CO,18,38,21
Maharashtra,Aurangabad,"More Chowk Waluj, Aurangabad - MPCB",,19.8389439,75.244448,CO,40,45,42
Maharashtra,Aurangabad,"Rachnakar Colony, Aurangabad - MPCB",,19.863756,75.321188,NO2,19,132,67
Madhya Pradesh,Pithampur,"Sector-2 Industrial Area, Pithampur - MPPCB",,22.624758,75.675238,CO,31,87,35
Madhya Pradesh,Ratlam,"Shasthri Nagar, Ratlam - IPCA Lab",,23.331731,75.045981,PM10,61,196,132
Madhya Pradesh,Sagar,"Civil Lines, Sagar - MPPCB",,23.838586,78.759431,PM10,18,60,38
Madhya Pradesh,Sagar,"Civil Lines, Sagar - MPPCB",,23.838586,78.759431,NO2,7,58,19
Madhya Pradesh,Sagar,"Civil Lines, Sagar - MPPCB",,23.838586,78.759431,CO,9,51,16
Madhya Pradesh,Singrauli,"Suryakiran Bhawan NCL, Singrauli - MPPCB",,24.10897,82.64558,OZONE,3,174,140
Madhya Pradesh,Ujjain,"Mahakaleshwar Temple, Ujjain - MPPCB",,23.182719,75.768218,SO2,2,12,5
Maharashtra,Ahmednagar,"Tarakpur, Ahmednagar - MPCB",,19.10122,74.73339,PM2.5,46,73,58
Maharashtra,Ahmednagar,"Tarakpur, Ahmednagar - MPCB",,19.10122,74.73339,SO2,3,12,9
Kerala,Thiruvananthapuram,"Kariavattom, Thiruvananthapuram - Kerala PCB",,8.5637,76.8865,PM2.5,45,55,50
Kerala,Thiruvananthapuram,"Plammoodu, Thiruvananthapuram - Kerala PCB",,8.5149093,76.9435879,PM2.5,30,150,62
Kerala,Thrissur,"Corporation Ground, Thrissur - Kerala PCB",,10.5324,76.2159,PM2.5,42,54,50
Karnataka,Yadgir,"Collector Office, Yadgir - KSPCB",,16.7602,77.1428,SO2,11,21,15
Karnataka,Yadgir,"Collector Office, Yadgir - KSPCB",,16.7602,77.1428,CO,14,34,17
Kerala,Eloor,"Udyogamandal, Eloor - Kerala PCB",,10.073232,76.302765,PM2.5,46,128,75
Maharashtra,Mumbai,"Borivali East, Mumbai - IITM",,19.23241,72.86895,OZONE,53,78,67
Maharashtra,Mumbai,"Borivali East, Mumbai - MPCB",,19.2243333,72.8658113,SO2,10,53,29
Maharashtra,Mumbai,"Borivali East, Mumbai - MPCB",,19.2243333,72.8658113,OZONE,1,1,1
Maharashtra,Mumbai,"Byculla, Mumbai - BMC",,18.9767,72.838,NO2,14,138,53
Maharashtra,Mumbai,"Byculla, Mumbai - BMC",,18.9767,72.838,NH3,4,27,12
Maharashtra,Mumbai,"Byculla, Mumbai - BMC",,18.9767,72.838,SO2,9,12,11
Maharashtra,Mumbai,"Chembur, Mumbai - MPCB",,19.0364585,72.8954371,OZONE,61,83,74
Maharashtra,Mumbai,"Chhatrapati Shivaji Intl. Airport (T2), Mumbai - MPCB",,19.10078,72.87462,PM2.5,45,65,55
Maharashtra,Mumbai,"Chhatrapati Shivaji Intl. Airport (T2), Mumbai - MPCB",,19.10078,72.87462,PM10,79,104,92
Maharashtra,Mumbai,"Chhatrapati Shivaji Intl. Airport (T2), Mumbai - MPCB",,19.10078,72.87462,CO,21,33,23
Maharashtra,Mumbai,"Chhatrapati Shivaji Intl. Airport (T2), Mumbai - MPCB",,19.10078,72.87462,OZONE,7,7,7
Maharashtra,Mumbai,"Powai, Mumbai - MPCB",,19.1375,72.915056,PM2.5,31,41,35
Maharashtra,Mumbai,"Powai, Mumbai - MPCB",,19.1375,72.915056,SO2,22,24,23
Maharashtra,Mumbai,"Sewri, Mumbai - BMC",,19.000084,72.85673,PM10,62,166,109
Maharashtra,Mumbai,"Sewri, Mumbai - BMC",,19.000084,72.85673,NO2,9,38,20
Maharashtra,Mumbai,"Sewri, Mumbai - BMC",,19.000084,72.85673,OZONE,1,51,43
Maharashtra,Mumbai,"Shivaji Nagar, Mumbai - BMC",,19.060498,72.923356,NH3,1,3,1
Maharashtra,Mumbai,"Siddharth Nagar-Worli, Mumbai - IITM",,19.000083,72.813993,OZONE,32,92,68
Maharashtra,Mumbai,"Sion, Mumbai - MPCB",,19.047,72.8746,PM10,73,115,87
Maharashtra,Mumbai,"Sion, Mumbai - MPCB",,19.047,72.8746,NH3,5,8,6
Maharashtra,Mumbai,"Colaba, Mumbai - MPCB",,18.91,72.82,NH3,3,3,3
Maharashtra,Mumbai,"Colaba, Mumbai - MPCB",,18.91,72.82,OZONE,6,13,10
Maharashtra,Mumbai,"Kandivali East, Mumbai - MPCB",,19.2058,72.8682,NH3,4,12,6
Maharashtra,Mumbai,"Kandivali West, Mumbai - BMC",,19.215859,72.831718,NO2,9,94,28
Maharashtra,Mumbai,"Kherwadi_Bandra East, Mumbai - MPCB",,19.0632143,72.8456324,PM10,94,143,118
Maharashtra,Mumbai,"Kherwadi_Bandra East, Mumbai - MPCB",,19.0632143,72.8456324,SO2,1,1,1
Maharashtra,Mumbai,"Khindipada-Bhandup West, Mumbai - IITM",,19.1653323,72.922099,OZONE,56,56,56
Maharashtra,Latur,"Sawe Wadi, Latur - MPCB",,18.39963,76.57452,NH3,4,32,11
Maharashtra,Mahad,"Kamble Tarf Birwadi, Mahad - MPCB",,18.1023399,73.4783687,PM2.5,64,136,93
Maharashtra,Mahad,"Kamble Tarf Birwadi, Mahad - MPCB",,18.1023399,73.4783687,SO2,10,45,22
Maharashtra,Malegaon,"Mahesh Nagar, Malegaon - MPCB",,20.555712,74.529236,NO2,4,24,10
Maharashtra,Mumbai,"Bandra Kurla Complex, Mumbai - MPCB",,19.065931,72.862131,OZONE,40,79,57
Maharashtra,Aurangabad,"Rachnakar Colony, Aurangabad - MPCB",,19.863756,75.321188,OZONE,11,134,108
Maharashtra,Badlapur,"Katrap, Badlapur - MPCB",,19.16485,73.23409,PM10,74,116,94
Maharashtra,Badlapur,"Katrap, Badlapur - MPCB",,19.16485,73.23409,NO2,38,116,67
Maharashtra,Belapur,"CBD Belapur, Belapur - MPCB",,19.0243902,73.0406721,PM2.5,54,211,110
Maharashtra,Belapur,"CBD Belapur, Belapur - MPCB",,19.0243902,73.0406721,PM10,104,170,133
Maharashtra,Bhiwandi,"Gokul Nagar, Bhiwandi - MPCB",,19.309073,73.057223,PM10,96,171,116
Maharashtra,Jalna,"Old MIDC, Jalna - MPCB",,19.854616,75.905894,NO2,39,47,43
Maharashtra,Jalna,"Old MIDC, Jalna - MPCB",,19.854616,75.905894,CO,7,21,12
Maharashtra,Kalyan,"Khadakpada, Kalyan - MPCB",,19.25292,73.142019,OZONE,16,16,16
Maharashtra,Kolhapur,"Shivaji University, Kolhapur - MPCB",,16.6870449,74.2505872,OZONE,2,69,57
Maharashtra,Mumbai,"Kurla, Mumbai - MPCB",,19.0863,72.8888,NO2,4,7,5
Maharashtra,Mumbai,"Kurla, Mumbai - MPCB",,19.0863,72.8888,SO2,36,37,36
Maharashtra,Mumbai,"Mindspace-Malad West, Mumbai - MPCB",,19.1878657,72.8304069,CO,12,14,13
Maharashtra,Mumbai,"Vasai West, Mumbai - MPCB",,19.3832,72.8204,PM10,67,161,105
Maharashtra,Mumbai,"Worli, Mumbai - MPCB",,18.9936162,72.8128113,PM10,85,144,100
Maharashtra,Mumbai,"Worli, Mumbai - MPCB",,18.9936162,72.8128113,OZONE,25,25,25
Maharashtra,Chandrapur,"Chauhan Colony, Chandrapur - MPCB",,19.9629,79.298714,NH3,1,2,2
Maharashtra,Chandrapur,"MIDC Khutala, Chandrapur - MPCB",,19.9775302,79.2337086,PM10,81,222,118
Maharashtra,Pune,"Savitribai Phule Pune University, Pune - MPCB",,18.547056,73.826908,CO,17,38,22
Maharashtra,Sangli,"Vijay Nagar, Sangli - MPCB",,16.5038,74.3623,CO,4,38,17
Maharashtra,Solapur,"Dnyaneshwar Nagar, Solapur - MPCB",,17.6336264,75.9132495,OZONE,36,67,55
Maharashtra,Pune,"Karve Road, Pune - MPCB",,18.5011743,73.8165527,NO2,6,8,7
Maharashtra,Pune,"Karve Road, Pune - MPCB",,18.5011743,73.8165527,CO,60,74,74
Maharashtra,Pune,"Katraj Dairy, Pune - MPCB",,18.45445,73.854155,PM2.5,58,130,88
Maharashtra,Pune,"Katraj Dairy, Pune - MPCB",,18.45445,73.854155,NO2,26,69,42
Maharashtra,Pune,"Katraj Dairy, Pune - MPCB",,18.45445,73.854155,CO,35,102,42
Maharashtra,Pune,"Mhada Colony, Pune - IITM",,18.57304,73.927715,OZONE,1,83,73
Maharashtra,Nagpur,"Ram Nagar, Nagpur - MPCB",,21.143383,79.048912,PM2.5,90,157,126
Maharashtra,Nagpur,"Ram Nagar, Nagpur - MPCB",,21.143383,79.048912,PM10,105,149,122
Maharashtra,Nagpur,"Ram Nagar, Nagpur - MPCB",,21.143383,79.048912,CO,16,66,22
Maharashtra,Nagpur,"Ram Nagar, Nagpur - MPCB",,21.143383,79.048912,OZONE,12,143,84
Maharashtra,Nanded,"Sneh Nagar, Nanded - MPCB",,19.173852,77.296291,PM2.5,52,112,84
Maharashtra,Nanded,"Sneh Nagar, Nanded - MPCB",,19.173852,77.296291,CO,4,93,27
Maharashtra,Nashik,"Gangapur Road, Nashik - MPCB",,20.0073285,73.7762427,PM10,59,144,96
Maharashtra,Nashik,"Gangapur Road, Nashik - MPCB",,20.0073285,73.7762427,CO,30,42,35
Maharashtra,Navi Mumbai,"Sector-2E Kalamboli, Navi Mumbai - MPCB",,19.02579,73.10297,OZONE,52,160,93
Maharashtra,Navi Mumbai,"Tondare-Taloja, Navi Mumbai - MPCB",,19.063,73.1209,SO2,1,2,1
Maharashtra,Pimpri-Chinchwad,"Thergaon, Pimpri Chinchwad - MPCB",,18.616318,73.765797,NH3,3,4,4
Maharashtra,Pimpri-Chinchwad,"Thergaon, Pimpri Chinchwad - MPCB",,18.616318,73.765797,OZONE,2,71,54
Maharashtra,Pune,"Bhumkar Nagar, Pune - IITM",,18.60577,73.749976,PM10,18,155,113
Maharashtra,Pune,"Bhumkar Nagar, Pune - IITM",,18.60577,73.749976,NO2,60,169,110
Maharashtra,Nashik,"Hirawadi, Nashik - MPCB",,20.021503,73.813844,OZONE,3,113,88
Maharashtra,Nashik,"MIDC Ambad, Nashik - MPCB",,19.95022,73.73148,NH3,3,14,5
Maharashtra,Navi Mumbai,"Mahape, Navi Mumbai - MPCB",,19.1135051,73.008978,NH3,1,1,1
Maharashtra,Navi Mumbai,"Mahape, Navi Mumbai - MPCB",,19.1135051,73.008978,SO2,23,23,23
Maharashtra,Thane,"Kasarvadavali, Thane - MPCB",,19.26777,72.97182,NH3,4,14,8
Maharashtra,Thane,"Kasarvadavali, Thane - MPCB",,19.26777,72.97182,SO2,3,17,7
Maharashtra,Thane,"Upvan Fort, Thane - MPCB",,19.222279,72.957979,PM2.5,52,143,83
Maharashtra,Thane,"Upvan Fort, Thane - MPCB",,19.222279,72.957979,PM10,60,106,84
Maharashtra,Virar,"Bolinj, Virar - MPCB",,19.445821,72.7988231,NO2,6,80,34
Mizoram,Aizawl,"Sikulpuikawn, Aizawl - Mizoram PCB",,23.7176342,92.7192841,PM10,37,102,68
Nagaland,Kohima,"PWD Juction, Kohima - NPCB",,25.6635413,94.0989878,PM10,43,127,79
Odisha,Angul,"Hakimapada, Angul - OSPCB",,20.832874,85.104082,PM10,81,206,126
Maharashtra,Nagpur,"Mahal, Nagpur - MPCB",,21.14472,79.107595,OZONE,14,88,78
Maharashtra,Nagpur,"Opp GPO Civil Lines, Nagpur - MPCB",,21.152875,79.0517531,PM10,69,173,120
Maharashtra,Nagpur,"Opp GPO Civil Lines, Nagpur - MPCB",,21.152875,79.0517531,NH3,3,6,4
Punjab,Amritsar,"Golden Temple, Amritsar - PPCB",,31.62,74.876512,OZONE,52,75,61
Punjab,Jalandhar,"Civil Line, Jalandhar - PPCB",,31.321907,75.578914,NO2,24,31,28
Punjab,Jalandhar,"Civil Line, Jalandhar - PPCB",,31.321907,75.578914,NH3,2,4,3
Punjab,Jalandhar,"Civil Line, Jalandhar - PPCB",,31.321907,75.578914,SO2,18,21,19
Punjab,Khanna,"Kalal Majra, Khanna - PPCB",,30.736056,76.209694,PM2.5,40,219,95
Punjab,Khanna,"Kalal Majra, Khanna - PPCB",,30.736056,76.209694,OZONE,21,75,67
Punjab,Ludhiana,"Punjab Agricultural University, Ludhiana - PPCB",,30.9028,75.8086,CO,24,93,37
Punjab,Mandi Gobindgarh,"RIMT University, Mandi Gobindgarh - PPCB",,30.649961,76.331442,NH3,7,7,7
Punjab,Patiala,"Model Town, Patiala - PPCB",,30.349388,76.366642,PM10,99,143,127
Odisha,Bhubaneswar,"Lingraj Mandir, Bhubaneswar - OSPCB",,20.24079,85.836784,OZONE,8,49,37
Odisha,Bhubaneswar,"Patia, Bhubaneswar - OSPCB",,20.34652,85.8163,PM10,28,84,48
Odisha,Bileipada,"Tata Township, Bileipada - OSPCB",,22.06156703,85.47409613,PM10,38,427,132
Odisha,Brajrajnagar,"GM Office, Brajrajnagar - OSPCB",,21.8004996,83.8396977,PM10,53,152,96
Odisha,Brajrajnagar,"GM Office, Brajrajnagar - OSPCB",,21.8004996,83.8396977,SO2,13,14,14
Odisha,Byasanagar,"Ferro Chrome Colony, Byasanagar - OSPCB",,20.94185,86.1151,PM10,33,127,62
Odisha,Byasanagar,"Ferro Chrome Colony, Byasanagar - OSPCB",,20.94185,86.1151,NO2,6,25,13
Odisha,Byasanagar,"Ferro Chrome Colony, Byasanagar - OSPCB",,20.94185,86.1151,CO,26,51,30
Odisha,Balasore,"Kalidaspur, Balasore - OSPCB",,21.51161,86.89088,NO2,3,28,14
Odisha,Balasore,"Kalidaspur, Balasore - OSPCB",,21.51161,86.89088,NH3,3,5,4
Odisha,Barbil,"Forest Office, Barbil - OSPCB",,22.1166054,85.3945546,PM10,63,309,149
Odisha,Barbil,"Forest Office, Barbil - OSPCB",,22.1166054,85.3945546,NO2,7,50,20
Odisha,Barbil,"Forest Office, Barbil - OSPCB",,22.1166054,85.3945546,CO,26,60,31
Odisha,Baripada,"Meher Colony, Baripada - OSPCB",,21.941841,86.728318,PM2.5,37,75,55
Odisha,Baripada,"Meher Colony, Baripada - OSPCB",,21.941841,86.728318,CO,35,108,80
Odisha,Bhubaneswar,"Lingraj Mandir, Bhubaneswar - OSPCB",,20.24079,85.836784,PM2.5,23,190,61
Odisha,Rourkela,"Raghunathpali, Rourkela - OSPCB",,22.220833,84.809444,NH3,2,10,4
Odisha,Rourkela,"Raghunathpali, Rourkela - OSPCB",,22.220833,84.809444,SO2,2,8,4
Odisha,Suakati,"OMC Colony, Suakati - OSPCB",,21.606865,85.510538,NO2,13,23,19
Odisha,Tensa,"Barsua Iron Ore Mines, Tensa - OSPCB",,21.869985,85.167016,CO,16,42,22
Puducherry,Puducherry,"Jawahar Nagar, Puducherry - PPCC",,11.9309,79.8027,PM10,25,116,43
Puducherry,Puducherry,"Jawahar Nagar, Puducherry - PPCC",,11.9309,79.8027,NH3,3,5,4
Puducherry,Puducherry,"Jawahar Nagar, Puducherry - PPCC",,11.9309,79.8027,CO,13,28,17
Rajasthan,Bhiwadi,"Vasundhara Nagar_UIT, Bhiwadi - RSPCB",,28.207266,76.829265,CO,15,50,22
Rajasthan,Bikaner,"MM Ground, Bikaner - RSPCB",,28.018792,73.292658,NO2,14,135,39
Rajasthan,Bikaner,"MM Ground, Bikaner - RSPCB",,28.018792,73.292658,CO,17,144,25
Rajasthan,Bundi,"New Colony, Bundi - RSPCB",,25.435774,75.644272,CO,25,72,35
Rajasthan,Chittorgarh,"Shastri Nagar, Chittorgarh - RSPCB",,24.892047,74.623527,SO2,5,16,9
Rajasthan,Churu,"Subash Chowk, Churu - RSPCB",,28.296139,74.961696,PM10,62,157,102
Punjab,Patiala,"Model Town, Patiala - PPCB",,30.349388,76.366642,NO2,19,57,31
Punjab,Patiala,"Model Town, Patiala - PPCB",,30.349388,76.366642,SO2,4,26,12
Punjab,Rupnagar,"Ratanpura, Rupnagar - Ambuja Cements",,31.0325454,76.5623046,PM2.5,39,207,110
Rajasthan,Ajmer,"Civil Lines,  Ajmer - RSPCB",,26.470859,74.646594,OZONE,21,62,60
Rajasthan,Banswara,"Rati Talai, Banswara - RSPCB",,23.55519,74.44001,SO2,1,28,11
Rajasthan,Banswara,"Rati Talai, Banswara - RSPCB",,23.55519,74.44001,CO,2,44,6
Odisha,Cuttack,"CDA Area, Cuttack - OSPCB",,20.48891,85.84768,PM2.5,22,48,33
Odisha,Cuttack,"CDA Area, Cuttack - OSPCB",,20.48891,85.84768,PM10,42,98,66
Odisha,Cuttack,"CDA Area, Cuttack - OSPCB",,20.48891,85.84768,CO,92,104,95
Odisha,Nayagarh,"Dabuna, Nayagarh - OSPCB",,21.847279,85.416905,NO2,1,11,2
Odisha,Rairangpur,"Divisional Forest Office, Rairangpur - OSPCB",,22.265816,86.174829,PM2.5,55,173,87
Odisha,Rairangpur,"Divisional Forest Office, Rairangpur - OSPCB",,22.265816,86.174829,SO2,2,19,14
Rajasthan,Barmer,"Railway Colony, Barmer - RSPCB",,25.747299,71.393989,PM2.5,18,244,47
Rajasthan,Barmer,"Railway Colony, Barmer - RSPCB",,25.747299,71.393989,PM10,63,204,104
Rajasthan,Bharatpur,"Krishna Nagar, Bharatpur - RSPCB",,27.215415,77.50873,NO2,20,105,44
Rajasthan,Bhiwadi,"RIICO Ind. Area III, Bhiwadi - RSPCB",,28.194909,76.862296,PM10,95,188,139
Rajasthan,Bhiwadi,"RIICO Ind. Area III, Bhiwadi - RSPCB",,28.194909,76.862296,NH3,9,15,13
Odisha,Rourkela,"Raghunathpali, Rourkela - OSPCB",,22.220833,84.809444,PM2.5,83,318,193
Odisha,Rourkela,"Raghunathpali, Rourkela - OSPCB",,22.220833,84.809444,NO2,5,18,10
Rajasthan,Churu,"Subash Chowk, Churu - RSPCB",,28.296139,74.961696,OZONE,57,107,91
Rajasthan,Dausa,"Khatikan Mohalla, Dausa - RSPCB",,26.895552,76.334753,PM10,52,150,86
Rajasthan,Dausa,"Khatikan Mohalla, Dausa - RSPCB",,26.895552,76.334753,SO2,3,14,6
Rajasthan,Dholpur,"Raja Ganj, Dholpur - RSPCB",,26.699557,77.898881,NO2,8,36,19
Rajasthan,Dholpur,"Raja Ganj, Dholpur - RSPCB",,26.699557,77.898881,NH3,6,9,8
Rajasthan,Dholpur,"Raja Ganj, Dholpur - RSPCB",,26.699557,77.898881,OZONE,35,96,86
Rajasthan,Jaipur,"Adarsh Nagar, Jaipur - RSPCB",,26.902909,75.836858,SO2,13,86,27
Rajasthan,Jaipur,"Adarsh Nagar, Jaipur - RSPCB",,26.902909,75.836858,CO,31,95,40
Rajasthan,Jaipur,"Mansarovar Sector-12, Jaipur - RSPCB",,26.843698,75.766894,PM10,48,163,94
Rajasthan,Jaipur,"Mansarovar Sector-12, Jaipur - RSPCB",,26.843698,75.766894,OZONE,10,118,105
Rajasthan,Jaipur,"Police Commissionerate, Jaipur - RSPCB",,26.9164092,75.7994901,OZONE,11,64,50
Rajasthan,Jaipur,"Shastri Nagar, Jaipur - RSPCB",,26.9502929,75.730943,CO,34,117,65
Rajasthan,Jaipur,"Shastri Nagar, Jaipur - RSPCB",,26.9502929,75.730943,OZONE,11,67,61
Rajasthan,Jalore,"Mudtra Sili, Jalore - RSPCB",,25.344694,72.626208,PM2.5,33,142,55
Rajasthan,Jalore,"Mudtra Sili, Jalore - RSPCB",,25.344694,72.626208,NO2,10,76,35
Rajasthan,Jalore,"Mudtra Sili, Jalore - RSPCB",,25.344694,72.626208,NH3,7,10,8
Rajasthan,Jalore,"Mudtra Sili, Jalore - RSPCB",,25.344694,72.626208,OZONE,12,119,106
Rajasthan,Jhalawar,"Rajlaxmi Nagar, Jhalawar - RSPCB",,24.588397,76.172782,OZONE,1,107,91
Rajasthan,Jhunjhunu,"Indra Nagar, Jhunjhunu - RSPCB",,28.108988,75.386577,CO,23,74,35
Rajasthan,Jodhpur,"Digari Kalan, Jodhpur - RSPCB",,26.29581,73.082283,SO2,3,24,10
Rajasthan,Jodhpur,"Digari Kalan, Jodhpur - RSPCB",,26.29581,73.082283,CO,16,76,20
Rajasthan,Jodhpur,"Digari Kalan, Jodhpur - RSPCB",,26.29581,73.082283,OZONE,1,89,71
Rajasthan,Karauli,"Satyawati Vihar, Karauli - RSPCB",,26.506177,77.025989,NH3,1,8,4
Rajasthan,Karauli,"Satyawati Vihar, Karauli - RSPCB",,26.506177,77.025989,SO2,1,17,8
Rajasthan,Kota,"Dhanmandi, Kota - RSPCB",,25.16409,75.858137,NH3,5,8,6
Rajasthan,Nagaur,"Karni Colony, Nagaur - RSPCB",,27.213494,73.734444,PM2.5,26,91,45
Rajasthan,Nagaur,"Karni Colony, Nagaur - RSPCB",,27.213494,73.734444,PM10,101,199,133
Assam,Nalbari,"Bata Chowk, Nalbari - PCBA",,26.446912,91.439057,NH3,1,1,1
Assam,Nalbari,"Bata Chowk, Nalbari - PCBA",,26.446912,91.439057,CO,10,56,35
Assam,Silchar,"Tarapur, Silchar - PCBA",,24.82827,92.79525,PM2.5,22,73,49
Assam,Silchar,"Tarapur, Silchar - PCBA",,24.82827,92.79525,NO2,5,11,9
Assam,Silchar,"Tarapur, Silchar - PCBA",,24.82827,92.79525,NH3,1,2,2
Bihar,Araria,"Kharahiya Basti, Araria - BSPCB",,26.146529,87.454184,NO2,7,7,7
Bihar,Araria,"Kharahiya Basti, Araria - BSPCB",,26.146529,87.454184,NH3,11,14,12
Bihar,Araria,"Kharahiya Basti, Araria - BSPCB",,26.146529,87.454184,SO2,22,31,26
Bihar,Arrah,"New DM Office, Arrah - BSPCB",,25.5626095,84.663264,CO,15,34,22
Bihar,Begusarai,"Lohiyanagar, Begusarai - BSPCB",,25.42742023,86.13886079,OZONE,1,11,6
Bihar,Bettiah,"Kamalnath Nagar, Bettiah - BSPCB",,26.80365,84.51954,PM2.5,27,243,107
Bihar,Bettiah,"Kamalnath Nagar, Bettiah - BSPCB",,26.80365,84.51954,PM10,63,214,123
Bihar,Bhagalpur,"DM Office_Kachari Chowk, Bhagalpur - BSPCB",,25.251013,86.989001,PM2.5,23,48,34
Bihar,Bhagalpur,"DM Office_Kachari Chowk, Bhagalpur - BSPCB",,25.251013,86.989001,PM10,37,79,55
Andhra_Pradesh,Vijayawada,"HB Colony, Vijayawada - APPCB",,16.536107,80.594233,PM2.5,44,87,67
Andhra_Pradesh,Vijayawada,"HB Colony, Vijayawada - APPCB",,16.536107,80.594233,NH3,3,3,3
Andhra_Pradesh,Vijayawada,"Kanuru, Vijayawada - APPCB",,16.486692,80.699436,CO,16,26,17
Andhra_Pradesh,Vijayawada,"Rajiv Gandhi Park, Vijayawada - APPCB",,16.509717,80.612222,PM2.5,57,88,74
Andhra_Pradesh,Vijayawada,"Rajiv Gandhi Park, Vijayawada - APPCB",,16.509717,80.612222,PM10,60,90,77
Andhra_Pradesh,Vijayawada,"Rajiv Gandhi Park, Vijayawada - APPCB",,16.509717,80.612222,NH3,3,4,4
Andhra_Pradesh,Vijayawada,"Rajiv Gandhi Park, Vijayawada - APPCB",,16.509717,80.612222,SO2,9,11,10
Andhra_Pradesh,Vijayawada,"Rajiv Gandhi Park, Vijayawada - APPCB",,16.509717,80.612222,OZONE,6,29,22
Andhra_Pradesh,Kadapa,"Yerramukkapalli, Kadapa - APPCB",,14.465052,78.824187,NO2,10,27,16
Andhra_Pradesh,Rajamahendravaram,"Anand Kala Kshetram, Rajamahendravaram - APPCB",,16.9872867,81.7363176,PM2.5,31,52,39
Andhra_Pradesh,Tirumala,"Toll Gate, Tirumala - APPCB (Formerly known as Tirumala, Tirupati - APPCB)",,13.67,79.35,SO2,2,22,6
Bihar,Bhagalpur,"Mayaganj, Bhagalpur - BSPCB",,25.265194,87.012947,PM10,70,258,134
Bihar,Bhagalpur,"Mayaganj, Bhagalpur - BSPCB",,25.265194,87.012947,NH3,1,8,6
Bihar,Bihar Sharif,"D M Colony, Bihar Sharif - BSPCB",,25.204762,85.51496,NH3,1,2,2
Bihar,Buxar,"Charitra Van, Buxar - BSPCB",,25.56752,83.966379,NH3,4,4,4
Bihar,Chhapra,"Darshan Nagar, Chhapra - BSPCB",,25.7808257,84.7446768,PM10,46,161,105
Bihar,Chhapra,"Darshan Nagar, Chhapra - BSPCB",,25.7808257,84.7446768,NO2,2,37,14
Assam,Guwahati,"Pan Bazaar, Guwahati - PCBA",,26.1875,91.744194,OZONE,17,17,17
Assam,Guwahati,"Railway Colony, Guwahati - PCBA",,26.181742,91.78063,OZONE,22,89,63
Assam,Nagaon,"Christianpatty, Nagaon - PCBA",,26.349082,92.68449,PM2.5,23,260,88
Assam,Nagaon,"Christianpatty, Nagaon - PCBA",,26.349082,92.68449,NH3,4,4,4
Assam,Nagaon,"Christianpatty, Nagaon - PCBA",,26.349082,92.68449,CO,12,101,41
Assam,Nagaon,"Christianpatty, Nagaon - PCBA",,26.349082,92.68449,OZONE,25,43,33
Bihar,Gaya,"Collectorate, Gaya - BSPCB",,24.7955,84.9994,CO,28,129,57
Bihar,Gaya,"Kareemganj, Gaya - BSPCB",,24.792403,84.992416,NO2,3,6,4
Bihar,Gaya,"Kareemganj, Gaya - BSPCB",,24.792403,84.992416,NH3,4,7,5
Bihar,Gaya,"SFTI Kusdihra, Gaya - BSPCB",,24.762518,84.982348,NO2,17,25,22
Bihar,Gaya,"SFTI Kusdihra, Gaya - BSPCB",,24.762518,84.982348,CO,12,40,16
Bihar,Hajipur,"Industrial Area, Hajipur - BSPCB",,25.697189,85.2459,SO2,5,7,6
Andhra_Pradesh,Visakhapatnam,"GVM Corporation, Visakhapatnam - APPCB",,17.72,83.3,NO2,38,59,49
Andhra_Pradesh,Amaravati,"Secretariat, Amaravati - APPCB",,16.5150833,80.5181667,SO2,13,15,14
Andhra_Pradesh,Anantapur,"Gulzarpet, Anantapur - APPCB",,14.675886,77.593027,SO2,7,11,9
Andhra_Pradesh,Chittoor,"Gangineni Cheruvu, Chittoor - APPCB",,13.20488,79.097889,OZONE,28,44,33
Andaman and Nicobar,Sri Vijaya Puram,"Police Line, Sri Vijaya Puram - ANPCC",,11.654054,92.734055,PM10,46,78,62
Bihar,Hajipur,"Industrial Area, Hajipur - BSPCB",,25.697189,85.2459,OZONE,10,133,108
Bihar,Katihar,"Mirchaibari, Katihar - BSPCB",,25.560083,87.553265,PM2.5,23,153,70
Bihar,Katihar,"Mirchaibari, Katihar - BSPCB",,25.560083,87.553265,PM10,18,97,52
Bihar,Katihar,"Mirchaibari, Katihar - BSPCB",,25.560083,87.553265,NH3,1,1,1
Bihar,Kishanganj,"SDM Office_Khagra, Kishanganj - BSPCB",,26.0881305,87.93840336,CO,13,130,59
Bihar,Manguraha,"Forest Rest House, Manguraha - BSPCB",,27.308328,84.531742,NO2,2,10,5
Bihar,Manguraha,"Forest Rest House, Manguraha - BSPCB",,27.308328,84.531742,SO2,6,7,6
Bihar,Motihari,"Gandak Colony, Motihari - BSPCB",,26.63086,84.90051,PM10,47,499,154
Bihar,Motihari,"Gandak Colony, Motihari - BSPCB",,26.63086,84.90051,OZONE,11,14,13
Bihar,Munger,"Town Hall, Munger - BSPCB",,25.376776,86.471523,PM2.5,42,117,77
Bihar,Munger,"Town Hall, Munger - BSPCB",,25.376776,86.471523,CO,14,40,24
Bihar,Muzaffarpur,"Buddha Colony, Muzaffarpur - BSPCB",,26.11442,85.39813,PM10,119,411,179
Bihar,Muzaffarpur,"Buddha Colony, Muzaffarpur - BSPCB",,26.11442,85.39813,NH3,6,11,10
Bihar,Muzaffarpur,"MIT-Daudpur Kothi, Muzaffarpur - BSPCB",,26.1403345,85.3650192,PM2.5,17,160,77
Bihar,Muzaffarpur,"MIT-Daudpur Kothi, Muzaffarpur - BSPCB",,26.1403345,85.3650192,OZONE,9,76,70
Bihar,Muzaffarpur,"Muzaffarpur Collectorate, Muzaffarpur - BSPCB",,26.1209,85.3647,SO2,4,6,5
Bihar,Patna,"DRM Office Danapur, Patna - BSPCB",,25.586562,85.043586,PM2.5,10,419,71
Bihar,Patna,"DRM Office Danapur, Patna - BSPCB",,25.586562,85.043586,NH3,2,3,3
Bihar,Patna,"Govt. High School Shikarpur, Patna - BSPCB",,25.592539,85.227158,PM2.5,125,281,218
Chhattisgarh,Bhilai,"32Bungalows, Bhilai - CECB",,21.194815,81.31477,PM2.5,29,97,64
Chhattisgarh,Bhilai,"32Bungalows, Bhilai - CECB",,21.194815,81.31477,PM10,41,136,87
Chhattisgarh,Bhilai,"32Bungalows, Bhilai - CECB",,21.194815,81.31477,NH3,1,6,4
Chhattisgarh,Bhilai,"32Bungalows, Bhilai - CECB",,21.194815,81.31477,CO,12,77,29
Chhattisgarh,Bhilai,"Civic Center, Bhilai - Bhilai Steel Plant",,21.185571,81.343175,NO2,7,9,8
Chhattisgarh,Bilaspur,"Mangala, Bilaspur - NTPC",,22.08815,82.13737,PM2.5,35,111,62
Chhattisgarh,Bilaspur,"Mangala, Bilaspur - NTPC",,22.08815,82.13737,SO2,1,16,10
Bihar,Patna,"Govt. High School Shikarpur, Patna - BSPCB",,25.592539,85.227158,CO,49,112,60
Bihar,Patna,"Govt. High School Shikarpur, Patna - BSPCB",,25.592539,85.227158,OZONE,10,22,19
Bihar,Patna,"Rajbansi Nagar, Patna - BSPCB",,25.599486,85.113666,NH3,4,11,7
Bihar,Patna,"Rajbansi Nagar, Patna - BSPCB",,25.599486,85.113666,CO,9,75,25
Bihar,Patna,"Samanpura, Patna - BSPCB",,25.596727,85.085624,SO2,5,47,10
Bihar,Patna,"Samanpura, Patna - BSPCB",,25.596727,85.085624,OZONE,36,116,71
Chhattisgarh,Raipur,"Siltara Phase-II, Raipur - CECB",,21.371751,81.664929,OZONE,4,43,29
Delhi,Delhi,"Alipur, Delhi - DPCC",,28.815329,77.15301,PM10,103,391,195
Chhattisgarh,Raipur,"AIIMS, Raipur - CECB",,21.258815,81.578979,NH3,6,7,6
Chhattisgarh,Raipur,"Bhatagaon New ISBT, Raipur - CECB",,21.219665,81.630094,PM2.5,28,68,47
Chhattisgarh,Raipur,"Bhatagaon New ISBT, Raipur - CECB",,21.219665,81.630094,NO2,66,141,90
Chhattisgarh,Korba,"Rampur, Korba - CECB",,22.368195,82.746431,CO,34,40,38
Chhattisgarh,Korba,"Rampur, Korba - CECB",,22.368195,82.746431,OZONE,4,18,9
Chhattisgarh,Korba,"Urja Nagar, Korba - CECB",,22.348441,82.549611,NH3,1,9,4
Chhattisgarh,Korba,"Urja Nagar, Korba - CECB",,22.348441,82.549611,CO,11,100,14
Bihar,Purnia,"Mariam Nagar, Purnia - BSPCB",,25.366336,87.117468,PM10,51,193,111
Bihar,Saharsa,"Police Line, Saharsa - BSPCB",,25.892357,86.590325,NH3,4,4,4
Bihar,Sasaram,"Dada Peer, Sasaram - BSPCB",,24.952822,84.002396,NH3,3,3,3
Bihar,Siwan,"Chitragupta Nagar, Siwan - BSPCB",,26.2271665,84.3570427,NO2,5,11,8
Delhi,Delhi,"Lodhi Road, Delhi - IMD",,28.5918245,77.2273074,PM10,110,236,159
Delhi,Delhi,"Major Dhyan Chand National Stadium, Delhi - DPCC",,28.611281,77.237738,NO2,22,156,100
Delhi,Delhi,"Major Dhyan Chand National Stadium, Delhi - DPCC",,28.611281,77.237738,SO2,11,40,20
Delhi,Delhi,"Major Dhyan Chand National Stadium, Delhi - DPCC",,28.611281,77.237738,CO,7,103,18
Delhi,Delhi,"Mandir Marg, Delhi - DPCC",,28.636429,77.201067,PM10,69,213,139
Delhi,Delhi,"Mandir Marg, Delhi - DPCC",,28.636429,77.201067,NH3,8,13,10
Delhi,Delhi,"Mandir Marg, Delhi - DPCC",,28.636429,77.201067,CO,20,44,25
Delhi,Delhi,"Mundka, Delhi - DPCC",,28.684678,77.076574,PM2.5,50,392,225
Delhi,Delhi,"Mundka, Delhi - DPCC",,28.684678,77.076574,PM10,134,481,282
Gujarat,Ahmedabad,"Maninagar, Ahmedabad - GPCB",,23.002657,72.591912,CO,11,72,27
Gujarat,Ahmedabad,"Raikhad, Ahmedabad - IITM",,23.020509,72.579261,PM2.5,53,89,69
Gujarat,Ahmedabad,"Raikhad, Ahmedabad - IITM",,23.020509,72.579261,PM10,50,96,70
Gujarat,Ahmedabad,"Raikhad, Ahmedabad - IITM",,23.020509,72.579261,SO2,14,53,22
Gujarat,Ahmedabad,"Rakhial, Ahmedabad - IITM",,23.016834,72.625775,OZONE,104,287,154
Delhi,Delhi,"CRRI Mathura Road, Delhi - IMD",,28.5512005,77.2735737,NO2,90,172,129
Delhi,Delhi,"Chandni Chowk, Delhi - IITM",,28.656756,77.227234,PM2.5,112,372,261
Delhi,Delhi,"Chandni Chowk, Delhi - IITM",,28.656756,77.227234,SO2,16,34,23
Delhi,Delhi,"Chandni Chowk, Delhi - IITM",,28.656756,77.227234,CO,5,104,54
Delhi,Delhi,"Dr. Karni Singh Shooting Range, Delhi - DPCC",,28.498571,77.26484,SO2,20,84,38
Delhi,Delhi,"Dr. Karni Singh Shooting Range, Delhi - DPCC",,28.498571,77.26484,CO,18,108,30
Delhi,Delhi,"Dwarka-Sector 8, Delhi - DPCC ",,28.5710274,77.0719006,SO2,12,17,14
Delhi,Delhi,"Nehru Nagar, Delhi - DPCC",,28.56789,77.250515,CO,12,118,30
Delhi,Delhi,"Nehru Nagar, Delhi - DPCC",,28.56789,77.250515,OZONE,4,312,275
Delhi,Delhi,"Okhla Phase-2, Delhi - DPCC",,28.530785,77.271255,PM2.5,42,431,250
Delhi,Delhi,"Okhla Phase-2, Delhi - DPCC",,28.530785,77.271255,NH3,8,13,10
Delhi,Delhi,"Patparganj, Delhi - DPCC",,28.623763,77.287209,NH3,6,9,8
Delhi,Delhi,"Punjabi Bagh, Delhi - DPCC",,28.674045,77.131023,SO2,16,30,24
Delhi,Delhi,"Pusa, Delhi - DPCC",,28.639652,77.146275,PM2.5,47,322,157
Delhi,Delhi,"Pusa, Delhi - IMD",,28.63611,77.173332,PM2.5,46,317,175
Delhi,Delhi,"Pusa, Delhi - IMD",,28.63611,77.173332,NO2,27,110,74
Delhi,Delhi,"R K Puram, Delhi - DPCC",,28.563262,77.186937,CO,2,118,15
Delhi,Delhi,"R K Puram, Delhi - DPCC",,28.563262,77.186937,OZONE,14,33,28
Delhi,Delhi,"Rohini, Delhi - DPCC",,28.732528,77.11992,NO2,15,149,78
Delhi,Delhi,"Rohini, Delhi - DPCC",,28.732528,77.11992,OZONE,3,271,171
Delhi,Delhi,"Sirifort, Delhi - CPCB",,28.5504249,77.2159377,PM10,114,405,235
Delhi,Delhi,"Sonia Vihar, Delhi - DPCC",,28.710508,77.249485,PM2.5,48,340,194
Delhi,Delhi,"Sonia Vihar, Delhi - DPCC",,28.710508,77.249485,NO2,22,85,56
Delhi,Delhi,"Sonia Vihar, Delhi - DPCC",,28.710508,77.249485,CO,26,129,114
Delhi,Delhi,"Sri Aurobindo Marg, Delhi - DPCC",,28.531346,77.190156,SO2,16,35,22
Delhi,Delhi,"Wazirpur, Delhi - DPCC",,28.699793,77.165453,SO2,13,56,25
Delhi,Delhi,"Anand Vihar, Delhi - DPCC",,28.647622,77.315809,NO2,67,154,123
Delhi,Delhi,"Anand Vihar, Delhi - DPCC",,28.647622,77.315809,NH3,5,17,10
Delhi,Delhi,"Ashok Vihar, Delhi - DPCC",,28.695381,77.181665,CO,5,76,23
Delhi,Delhi,"Ashok Vihar, Delhi - DPCC",,28.695381,77.181665,OZONE,3,301,203
Delhi,Delhi,"Bawana, Delhi - DPCC",,28.7762,77.051074,NO2,7,74,39
Delhi,Delhi,"IGI Airport (T3), Delhi - IMD",,28.5627763,77.1180053,PM10,97,400,204
Delhi,Delhi,"IGI Airport (T3), Delhi - IMD",,28.5627763,77.1180053,OZONE,5,145,103
Delhi,Delhi,"ITO, Delhi - CPCB",,28.628624,77.24106,PM10,66,302,155
Delhi,Delhi,"ITO, Delhi - CPCB",,28.628624,77.24106,SO2,6,44,18
Delhi,Delhi,"ITO, Delhi - CPCB",,28.628624,77.24106,OZONE,1,84,60
Delhi,Delhi,"NSIT Dwarka, Delhi - CPCB",,28.60909,77.0325413,SO2,2,22,11
Delhi,Delhi,"Najafgarh, Delhi - DPCC",,28.570173,76.933762,PM2.5,41,322,167
Delhi,Delhi,"Narela, Delhi - DPCC",,28.822836,77.101981,SO2,4,42,19
Delhi,Delhi,"Narela, Delhi - DPCC",,28.822836,77.101981,CO,6,111,37
Gujarat,Gandhinagar,"IIPHG Lekawada, Gandhinagar - IITM",,23.243639,72.68994,OZONE,64,94,75
Gujarat,Gandhinagar,"Sector-10, Gandhinagar - GPCB",,23.221714,72.654328,OZONE,22,23,22
Gujarat,Nandesari,"GIDC, Nandesari - Nandesari Ind. Association",,22.410802,73.097923,NO2,11,101,32
Gujarat,Surat,"Science Center, Surat - SMC",,21.170046,72.795405,PM10,40,179,87
Gujarat,Vapi,"Phase-1 GIDC, Vapi - GPCB",,20.362421,72.918013,PM2.5,59,329,141
Gujarat,Vatva,"Phase-4 GIDC, Vatva - GPCB",,22.969611,72.6435,PM10,55,253,118
Haryana,Charkhi Dadri,"Mini Secretariat, Charkhi Dadri - HSPCB",,28.593883,76.270653,PM2.5,113,384,232
Karnataka,Chamarajanagar,"Urban, Chamarajanagar - KSPCB",,11.55358,76.55521,PM10,33,59,43
Karnataka,Chamarajanagar,"Urban, Chamarajanagar - KSPCB",,11.55358,76.55521,NO2,14,36,24
Karnataka,Chikkaballapur,"Chikkaballapur Rural, Chikkaballapur - KSPCB",,13.428828,77.731418,NH3,1,2,1
Karnataka,Chikkaballapur,"Chikkaballapur Rural, Chikkaballapur - KSPCB",,13.428828,77.731418,SO2,13,24,16
Karnataka,Chikkaballapur,"Chikkaballapur Rural, Chikkaballapur - KSPCB",,13.428828,77.731418,OZONE,24,24,24
Haryana,Gurugram,"Sector-51, Gurugram - HSPCB",,28.4227,77.0667,PM2.5,59,308,209
Haryana,Gurugram,"Sector-51, Gurugram - HSPCB",,28.4227,77.0667,SO2,13,19,17
Haryana,Gurugram,"Teri Gram, Gurugram - HSPCB",,28.4275,77.1465,OZONE,32,42,41
Himachal Pradesh,Baddi,"HIMUDA Complex Phase-1, Baddi - HPPCB",,30.943887,76.801991,NO2,11,48,21
Jammu_and_Kashmir,Srinagar,"Rajbagh, Srinagar - JKSPCB",,34.066206,74.81982,SO2,3,3,3
Gujarat,Ahmedabad,"Sardar Vallabhbhai Patel Stadium, Ahmedabad - IITM",,23.04307,72.562968,OZONE,44,74,58
Gujarat,Ankleshwar,"GIDC, Ankleshwar - GPCB",,21.613267,73.010555,CO,6,57,25
Karnataka,Bengaluru,"Hombegowda Nagar, Bengaluru - KSPCB",,12.938539,77.5901,OZONE,2,152,123
Karnataka,Bengaluru,"Jayanagar 5th Block, Bengaluru - KSPCB",,12.920984,77.584908,PM10,51,109,76
Karnataka,Bengaluru,"Jayanagar 5th Block, Bengaluru - KSPCB",,12.920984,77.584908,SO2,9,17,12
Karnataka,Bengaluru,"Jigani, Bengaluru - KSPCB",,12.7816279,77.6299145,NH3,6,7,7
Karnataka,Bengaluru,"Jigani, Bengaluru - KSPCB",,12.7816279,77.6299145,SO2,22,29,22
Haryana,Charkhi Dadri,"Mini Secretariat, Charkhi Dadri - HSPCB",,28.593883,76.270653,PM10,91,277,148
Haryana,Charkhi Dadri,"Mini Secretariat, Charkhi Dadri - HSPCB",,28.593883,76.270653,NH3,6,8,7
Haryana,Faridabad,"Sector 11, Faridabad - HSPCB",,28.376058,77.315741,PM10,54,56,54
Haryana,Faridabad,"Sector 30, Faridabad - HSPCB",,28.4417,77.3217,PM2.5,40,43,42
Karnataka,Bengaluru,"Sanegurava Halli, Bengaluru - KSPCB",,12.990328,77.5431385,SO2,6,8,7
Karnataka,Bengaluru,"Shivapura_Peenya, Bengaluru - KSPCB",,13.0246342,77.5080115,PM2.5,38,56,45
Karnataka,Bengaluru,"Shivapura_Peenya, Bengaluru - KSPCB",,13.0246342,77.5080115,NO2,8,9,8
Karnataka,Bengaluru,"Shivapura_Peenya, Bengaluru - KSPCB",,13.0246342,77.5080115,CO,35,49,39
Karnataka,Dharwad,"Kalabhavan, Dharwad - KSPCB",,15.459706,75.008381,PM10,56,73,67
Karnataka,Dharwad,"Kalabhavan, Dharwad - KSPCB",,15.459706,75.008381,NO2,19,24,20
Karnataka,Bengaluru,"Bapuji Nagar, Bengaluru - KSPCB",,12.951913,77.539784,NH3,1,2,1
Karnataka,Karwar,"KHB Colony, Karwar - KSPCB",,14.816666,74.141003,PM10,25,58,44
Karnataka,Koppal,"Diwator Nagar, Koppal - KSPCB",,15.34763,76.181767,NH3,4,10,6
Karnataka,Koppal,"Diwator Nagar, Koppal - KSPCB",,15.34763,76.181767,OZONE,11,55,48
Karnataka,Madikeri,"Stuart Hill, Madikeri - KSPCB",,12.415911,75.73505,SO2,4,4,4
Karnataka,Mysuru,"Hebbal 1st Stage, Mysuru - KSPCB",,12.21041,76.37376,PM2.5,31,65,43
Karnataka,Mysuru,"Hebbal 1st Stage, Mysuru - KSPCB",,12.21041,76.37376,PM10,44,86,56
Karnataka,Mysuru,"Hebbal 1st Stage, Mysuru - KSPCB",,12.21041,76.37376,OZONE,12,128,90
Madhya Pradesh,Jabalpur,"Marhatal, Jabalpur - MPPCB",,23.168606,79.932247,CO,8,178,46
Madhya Pradesh,Jabalpur,"Suhagi, Jabalpur - JMC",,23.218135,79.95777,PM10,29,136,77
Madhya Pradesh,Jabalpur,"Suhagi, Jabalpur - JMC",,23.218135,79.95777,NO2,21,130,60
Madhya Pradesh,Katni,"Gole Bazar, Katni - MPPCB",,23.50016,80.23284,PM10,60,161,103
Madhya Pradesh,Maihar,"Sahilara, Maihar - KJS Cements",,24.2613009,80.7231783,PM2.5,4,61,29
Madhya Pradesh,Maihar,"Sahilara, Maihar - KJS Cements",,24.2613009,80.7231783,PM10,11,79,41
Madhya Pradesh,Mandideep,"Sector-D Industrial Area, Mandideep - MPPCB",,23.10844,77.511428,PM2.5,20,442,158
Madhya Pradesh,Mandideep,"Sector-D Industrial Area, Mandideep - MPPCB",,23.10844,77.511428,NH3,3,17,8
Madhya Pradesh,Indore,"Residency Area, Indore - IMC",,22.7084,75.8815,PM10,36,131,75
Madhya Pradesh,Indore,"Residency Area, Indore - IMC",,22.7084,75.8815,NO2,3,16,11
Madhya Pradesh,Indore,"Residency Area, Indore - IMC",,22.7084,75.8815,CO,16,24,16
Madhya Pradesh,Indore,"Vijay Nagar Scheme-78, Indore - Glenmark",,22.76726,75.8871,PM2.5,50,53,52
Madhya Pradesh,Jabalpur,"Govindh Bhavan Colony, Jabalpur - JMC",,23.163174,79.973061,PM10,28,84,47
Madhya Pradesh,Jabalpur,"Govindh Bhavan Colony, Jabalpur - JMC",,23.163174,79.973061,SO2,5,28,11
Madhya Pradesh,Jabalpur,"Govindh Bhavan Colony, Jabalpur - JMC",,23.163174,79.973061,CO,8,26,11
Madhya Pradesh,Jabalpur,"Gupteshwar, Jabalpur - JMC",,23.142888,79.916147,NO2,17,136,54
Madhya Pradesh,Jabalpur,"Gupteshwar, Jabalpur - JMC",,23.142888,79.916147,CO,28,111,39
Madhya Pradesh,Gwalior,"Deen Dayal Nagar, Gwalior - MPPCB",,26.259242,78.216432,PM2.5,47,318,156
Madhya Pradesh,Gwalior,"Deen Dayal Nagar, Gwalior - MPPCB",,26.259242,78.216432,NO2,3,71,29
Madhya Pradesh,Gwalior,"Maharaj Bada, Gwalior - MPPCB",,26.200388,78.147714,OZONE,7,128,108
Madhya Pradesh,Indore,"Airport Area, Indore - IMC",,22.7289,75.8076,SO2,16,17,16
Madhya Pradesh,Indore,"Chhoti Gwaltoli, Indore - MPPCB",,22.431,75.5213,SO2,8,21,12
Madhya Pradesh,Indore,"Regional Park, Indore - IMC",,22.678,75.8559,PM2.5,32,189,71
Karnataka,Ramanagara,"Vijay Nagar, Ramanagara - KSPCB",,12.733409,77.298051,CO,14,36,25
Karnataka,Shivamogga,"Vinoba Nagara, Shivamogga - KSPCB",,13.94,75.555917,NH3,2,2,2
Karnataka,Shivamogga,"Vinoba Nagara, Shivamogga - KSPCB",,13.94,75.555917,SO2,4,9,6
Karnataka,Tumakuru,"Thimmalapura, Tumakuru - KSPCB",,13.377516,77.099072,NO2,18,18,18
Karnataka,Yadgir,"Collector Office, Yadgir - KSPCB",,16.7602,77.1428,PM2.5,30,56,42
Karnataka,Yadgir,"Collector Office, Yadgir - KSPCB",,16.7602,77.1428,PM10,56,94,73
Karnataka,Gadag,"Panchal Nagar, Gadag - KSPCB",,15.411456,75.638133,NO2,7,29,15
Karnataka,Gadag,"Panchal Nagar, Gadag - KSPCB",,15.411456,75.638133,SO2,17,21,18
Karnataka,Kalaburagi,"Mahatma Basaveswar Colony, Kalaburgi - KSPCB",,17.336318,76.847397,NO2,10,21,15
Karnataka,Kalaburagi,"Mahatma Basaveswar Colony, Kalaburgi - KSPCB",,17.336318,76.847397,CO,38,58,45
Karnataka,Kalaburagi,"Mahatma Basaveswar Colony, Kalaburgi - KSPCB",,17.336318,76.847397,OZONE,1,52,18
Kerala,Thiruvananthapuram,"Kariavattom, Thiruvananthapuram - Kerala PCB",,8.5637,76.8865,PM10,68,81,74
Kerala,Thiruvananthapuram,"Kariavattom, Thiruvananthapuram - Kerala PCB",,8.5637,76.8865,SO2,1,10,6
Kerala,Thiruvananthapuram,"Plammoodu, Thiruvananthapuram - Kerala PCB",,8.5149093,76.9435879,NO2,4,12,8
Kerala,Thrissur,"Corporation Ground, Thrissur - Kerala PCB",,10.5324,76.2159,NO2,9,10,9
Kerala,Eloor,"Udyogamandal, Eloor - Kerala PCB",,10.073232,76.302765,NH3,1,1,1
Kerala,Eloor,"Udyogamandal, Eloor - Kerala PCB",,10.073232,76.302765,CO,8,88,68
Kerala,Eloor,"Udyogamandal, Eloor - Kerala PCB",,10.073232,76.302765,OZONE,12,28,22
Kerala,Kannur,"Thavakkara, Kannur - Kerala PCB",,11.875,75.3732,CO,14,62,20
Madhya Pradesh,Bhopal,"Idgah Hills, Bhopal - MPPCB",,23.264759,77.381568,NH3,3,6,4
Madhya Pradesh,Damoh,"Shrivastav Colony, Damoh - MPPCB",,23.81748678,79.446246,SO2,4,19,17
Maharashtra,Latur,"Sawe Wadi, Latur - MPCB",,18.39963,76.57452,OZONE,2,143,101
Maharashtra,Mahad,"Kamble Tarf Birwadi, Mahad - MPCB",,18.1023399,73.4783687,CO,16,56,30
Maharashtra,Mahad,"Kamble Tarf Birwadi, Mahad - MPCB",,18.1023399,73.4783687,OZONE,4,84,70
Maharashtra,Malegaon,"Mahesh Nagar, Malegaon - MPCB",,20.555712,74.529236,SO2,27,66,36
Maharashtra,Mira-Bhayandar,"Bhayandar West, Mira-Bhayandar - MPCB",,19.296481,72.840923,OZONE,50,70,62
Maharashtra,Mumbai,"Colaba, Mumbai - MPCB",,18.91,72.82,CO,24,33,25
Maharashtra,Mumbai,"Ghatkopar, Mumbai - BMC",,19.083694,72.920967,PM2.5,46,129,86
Maharashtra,Mumbai,"Ghatkopar, Mumbai - BMC",,19.083694,72.920967,PM10,75,128,102
Maharashtra,Mumbai,"Ghatkopar, Mumbai - BMC",,19.083694,72.920967,NH3,4,34,13
Maharashtra,Mumbai,"Ghatkopar, Mumbai - BMC",,19.083694,72.920967,SO2,4,11,6
Maharashtra,Mumbai,"Ghatkopar, Mumbai - BMC",,19.083694,72.920967,CO,8,59,13
Maharashtra,Mumbai,"Kandivali West, Mumbai - BMC",,19.215859,72.831718,PM10,55,103,71
Maharashtra,Mumbai,"Kandivali West, Mumbai - BMC",,19.215859,72.831718,NH3,1,9,6
Maharashtra,Mumbai,"Kherwadi_Bandra East, Mumbai - MPCB",,19.0632143,72.8456324,OZONE,2,99,86
Madhya Pradesh,Singrauli,"Suryakiran Bhawan NCL, Singrauli - MPPCB",,24.10897,82.64558,SO2,30,84,44
Madhya Pradesh,Ujjain,"Mahakaleshwar Temple, Ujjain - MPPCB",,23.182719,75.768218,PM2.5,32,64,46
Madhya Pradesh,Ujjain,"Mahakaleshwar Temple, Ujjain - MPPCB",,23.182719,75.768218,NH3,3,5,4
Maharashtra,Ahmednagar,"Tarakpur, Ahmednagar - MPCB",,19.10122,74.73339,NO2,25,149,69
Maharashtra,Ahmednagar,"Tarakpur, Ahmednagar - MPCB",,19.10122,74.73339,NH3,4,12,6
Maharashtra,Ahmednagar,"Tarakpur, Ahmednagar - MPCB",,19.10122,74.73339,CO,32,124,44
Maharashtra,Akola,"Ramdaspeth, Akola - MPCB",,20.719516,77.000253,PM10,54,109,81
Maharashtra,Akola,"Ramdaspeth, Akola - MPCB",,20.719516,77.000253,CO,38,81,44
Maharashtra,Jalna,"Old MIDC, Jalna - MPCB",,19.854616,75.905894,NH3,2,5,4
Maharashtra,Kalyan,"Pimpleshwar Mandir, Kalyan - MPCB",,19.192056,72.9585188,OZONE,51,109,80
Maharashtra,Kolhapur,"Shivaji University, Kolhapur - MPCB",,16.6870449,74.2505872,PM2.5,36,71,49
Maharashtra,Kolhapur,"Shivaji University, Kolhapur - MPCB",,16.6870449,74.2505872,PM10,29,70,45
Maharashtra,Kolhapur,"Shivaji University, Kolhapur - MPCB",,16.6870449,74.2505872,NH3,2,8,5
Maharashtra,Chandrapur,"Chauhan Colony, Chandrapur - MPCB",,19.9629,79.298714,NO2,23,71,37
Maharashtra,Chandrapur,"Chauhan Colony, Chandrapur - MPCB",,19.9629,79.298714,CO,10,36,10
Maharashtra,Chandrapur,"MIDC Khutala, Chandrapur - MPCB",,19.9775302,79.2337086,NO2,28,34,33
Maharashtra,Chandrapur,"MIDC Khutala, Chandrapur - MPCB",,19.9775302,79.2337086,NH3,1,1,1
Maharashtra,Jalgaon,"Prabhat Colony, Jalgaon - MPCB",,21.001264,75.565602,PM2.5,65,292,162
Maharashtra,Jalgaon,"Prabhat Colony, Jalgaon - MPCB",,21.001264,75.565602,OZONE,1,126,105
Maharashtra,Jalna,"Old MIDC, Jalna - MPCB",,19.854616,75.905894,PM2.5,60,308,95
Madhya Pradesh,Pithampur,"Sector-2 Industrial Area, Pithampur - MPPCB",,22.624758,75.675238,NO2,4,63,21
Madhya Pradesh,Pithampur,"Sector-2 Industrial Area, Pithampur - MPPCB",,22.624758,75.675238,SO2,12,89,28
Madhya Pradesh,Sagar,"Civil Lines, Sagar - MPPCB",,23.838586,78.759431,OZONE,35,78,69
Madhya Pradesh,Sagar,"Deen Dayal Nagar, Sagar - MPPCB",,23.8640158,78.80289321,PM10,21,82,55
Madhya Pradesh,Satna,"Bandhavgar Colony, Satna - Birla Cement",,24.58434363,80.8549414,NO2,75,75,75
Madhya Pradesh,Satna,"Bandhavgar Colony, Satna - Birla Cement",,24.58434363,80.8549414,CO,12,29,15
Maharashtra,Amravati,"Shri Shivaji Science College, Amaravati - MPCB",,20.939198,77.765701,CO,31,94,41
Maharashtra,Aurangabad,"MIDC Chilkalthana, Aurangabad - MPCB",,19.87562,75.38731,PM2.5,41,103,68
Maharashtra,Aurangabad,"Rachnakar Colony, Aurangabad - MPCB",,19.863756,75.321188,NH3,2,3,3
Maharashtra,Badlapur,"Katrap, Badlapur - MPCB",,19.16485,73.23409,OZONE,1,147,115
Maharashtra,Belapur,"CBD Belapur, Belapur - MPCB",,19.0243902,73.0406721,NO2,28,65,41
Maharashtra,Belapur,"CBD Belapur, Belapur - MPCB",,19.0243902,73.0406721,OZONE,4,91,63
Maharashtra,Bhiwandi,"Gokul Nagar, Bhiwandi - MPCB",,19.309073,73.057223,NH3,3,8,4
Maharashtra,Boisar,"Khaira, Boisar - MPCB",,19.786089,72.757971,OZONE,27,46,34
Maharashtra,Mumbai,"Borivali East, Mumbai - IITM",,19.23241,72.86895,CO,12,50,33
Maharashtra,Mumbai,"Vasai West, Mumbai - MPCB",,19.3832,72.8204,PM2.5,26,121,58
Maharashtra,Mumbai,"Vasai West, Mumbai - MPCB",,19.3832,72.8204,NO2,25,28,27
Maharashtra,Mumbai,"Vasai West, Mumbai - MPCB",,19.3832,72.8204,NH3,4,4,4
Maharashtra,Mumbai,"Vasai West, Mumbai - MPCB",,19.3832,72.8204,CO,42,72,44
Maharashtra,Mumbai,"Vile Parle West, Mumbai - MPCB",,19.10861,72.83622,PM10,57,107,84
Maharashtra,Mumbai,"Vile Parle West, Mumbai - MPCB",,19.10861,72.83622,OZONE,6,12,8
Maharashtra,Mumbai,"Worli, Mumbai - MPCB",,18.9936162,72.8128113,NH3,4,5,5
Maharashtra,Mumbai,"Worli, Mumbai - MPCB",,18.9936162,72.8128113,SO2,4,10,7
Maharashtra,Nagpur,"Ambazari, Nagpur - MPCB",,21.121801,79.04952,PM10,12,133,107
Maharashtra,Nagpur,"Ambazari, Nagpur - MPCB",,21.121801,79.04952,NH3,2,31,6
Maharashtra,Nagpur,"Ambazari, Nagpur - MPCB",,21.121801,79.04952,OZONE,13,167,130
Maharashtra,Nagpur,"Mahal, Nagpur - MPCB",,21.14472,79.107595,PM10,98,166,131
Maharashtra,Mumbai,"Kurla, Mumbai - MPCB",,19.0863,72.8888,CO,4,18,7
Maharashtra,Mumbai,"Kurla, Mumbai - MPCB",,19.0863,72.8888,OZONE,28,29,28
Maharashtra,Mumbai,"Malad West, Mumbai - IITM",,19.19709,72.82204,OZONE,59,96,79
Maharashtra,Mumbai,"Navy Nagar-Colaba, Mumbai - IITM",,18.897756,72.81332,NH3,4,6,4
Maharashtra,Pimpri-Chinchwad,"Gavalinagar, Pimpri Chinchwad - MPCB",,18.63673,73.82487,CO,18,29,22
Maharashtra,Pimpri-Chinchwad,"Gavalinagar, Pimpri Chinchwad - MPCB",,18.63673,73.82487,OZONE,63,105,77
Maharashtra,Pimpri-Chinchwad,"Park Street Wakad, Pimpri Chinchwad - MPCB",,18.59051,73.77946,CO,16,32,22
Maharashtra,Pimpri-Chinchwad,"Savta Mali Nagar, Pimpri-Chinchwad - IITM",,18.614767,73.799516,OZONE,75,82,79
Maharashtra,Pimpri-Chinchwad,"Thergaon, Pimpri Chinchwad - MPCB",,18.616318,73.765797,PM2.5,53,142,76
Maharashtra,Pimpri-Chinchwad,"Thergaon, Pimpri Chinchwad - MPCB",,18.616318,73.765797,SO2,1,21,6
Maharashtra,Pune,"Bhosari, Pune - IITM",,18.640051,73.848956,CO,56,82,69
Maharashtra,Navi Mumbai,"Sector-2E Kalamboli, Navi Mumbai - MPCB",,19.02579,73.10297,CO,8,36,22
Maharashtra,Navi Mumbai,"Tondare-Taloja, Navi Mumbai - MPCB",,19.063,73.1209,PM10,121,161,135
Maharashtra,Navi Mumbai,"Tondare-Taloja, Navi Mumbai - MPCB",,19.063,73.1209,NO2,3,10,7
Maharashtra,Navi Mumbai,"Tondare-Taloja, Navi Mumbai - MPCB",,19.063,73.1209,NH3,5,12,9
Maharashtra,Nashik,"MIDC Ambad, Nashik - MPCB",,19.95022,73.73148,CO,6,106,13
Maharashtra,Navi Mumbai,"Mahape, Navi Mumbai - MPCB",,19.1135051,73.008978,PM2.5,56,307,107
Maharashtra,Pune,"Hadapsar, Pune - IITM",,18.501793,73.927532,PM10,99,180,130
Maharashtra,Pune,"Mhada Colony, Pune - IITM",,18.57304,73.927715,PM10,106,178,148
Maharashtra,Pune,"Mhada Colony, Pune - IITM",,18.57304,73.927715,NO2,27,93,64
Maharashtra,Nanded,"Sneh Nagar, Nanded - MPCB",,19.173852,77.296291,NH3,3,5,4
Maharashtra,Nanded,"Sneh Nagar, Nanded - MPCB",,19.173852,77.296291,OZONE,8,109,98
Maharashtra,Nashik,"Hirawadi, Nashik - MPCB",,20.021503,73.813844,PM10,68,318,140
Maharashtra,Mumbai,"Shivaji Nagar, Mumbai - BMC",,19.060498,72.923356,PM10,86,176,131
Maharashtra,Mumbai,"Sion, Mumbai - MPCB",,19.047,72.8746,PM2.5,72,135,92
Maharashtra,Mumbai,"Sion, Mumbai - MPCB",,19.047,72.8746,NO2,100,130,114
Maharashtra,Nagpur,"Mahal, Nagpur - MPCB",,21.14472,79.107595,CO,28,126,48
Maharashtra,Nagpur,"Opp GPO Civil Lines, Nagpur - MPCB",,21.152875,79.0517531,SO2,15,118,44
Maharashtra,Virar,"Bolinj, Virar - MPCB",,19.445821,72.7988231,OZONE,1,89,58
Meghalaya,Shillong,"JN Stadium, Shillong - Meghalaya PCB",,25.5803419,91.8942571,PM2.5,55,320,169
Mizoram,Aizawl,"Sikulpuikawn, Aizawl - Mizoram PCB",,23.7176342,92.7192841,SO2,2,2,2
Mizoram,Aizawl,"Sikulpuikawn, Aizawl - Mizoram PCB",,23.7176342,92.7192841,CO,3,3,3
Nagaland,Kohima,"PWD Juction, Kohima - NPCB",,25.6635413,94.0989878,NO2,2,4,3
Rajasthan,Ajmer,"Civil Lines,  Ajmer - RSPCB",,26.470859,74.646594,PM2.5,50,191,87
Rajasthan,Ajmer,"Civil Lines,  Ajmer - RSPCB",,26.470859,74.646594,NO2,42,54,51
Rajasthan,Ajmer,"Civil Lines,  Ajmer - RSPCB",,26.470859,74.646594,SO2,6,10,8
Rajasthan,Alwar,"Moti Doongri, Alwar - RSPCB",,27.554793,76.611536,PM2.5,30,85,53
Rajasthan,Alwar,"Moti Doongri, Alwar - RSPCB",,27.554793,76.611536,PM10,42,115,75
Rajasthan,Alwar,"Moti Doongri, Alwar - RSPCB",,27.554793,76.611536,NO2,46,102,74
Rajasthan,Alwar,"Moti Doongri, Alwar - RSPCB",,27.554793,76.611536,OZONE,12,60,56
Rajasthan,Banswara,"Rati Talai, Banswara - RSPCB",,23.55519,74.44001,NO2,8,119,35
Rajasthan,Banswara,"Rati Talai, Banswara - RSPCB",,23.55519,74.44001,NH3,3,11,6
Odisha,Suakati,"OMC Colony, Suakati - OSPCB",,21.606865,85.510538,OZONE,1,74,56
Puducherry,Puducherry,"Jawahar Nagar, Puducherry - PPCC",,11.9309,79.8027,SO2,5,12,8
Puducherry,Puducherry,"Jawahar Nagar, Puducherry - PPCC",,11.9309,79.8027,OZONE,16,52,47
Odisha,Angul,"Hakimapada, Angul - OSPCB",,20.832874,85.104082,NO2,11,53,26
Odisha,Balasore,"Kalidaspur, Balasore - OSPCB",,21.51161,86.89088,PM2.5,43,137,74
Odisha,Balasore,"Kalidaspur, Balasore - OSPCB",,21.51161,86.89088,OZONE,13,145,117
Odisha,Barbil,"Forest Office, Barbil - OSPCB",,22.1166054,85.3945546,PM2.5,42,197,88
Odisha,Barbil,"Forest Office, Barbil - OSPCB",,22.1166054,85.3945546,NH3,3,4,4
Odisha,Bhubaneswar,"Lingraj Mandir, Bhubaneswar - OSPCB",,20.24079,85.836784,PM10,28,107,63
Odisha,Bhubaneswar,"Lingraj Mandir, Bhubaneswar - OSPCB",,20.24079,85.836784,NO2,13,37,22
Odisha,Bhubaneswar,"Patia, Bhubaneswar - OSPCB",,20.34652,85.8163,OZONE,5,110,95
Odisha,Bileipada,"Tata Township, Bileipada - OSPCB",,22.06156703,85.47409613,PM2.5,27,73,52
Odisha,Brajrajnagar,"GM Office, Brajrajnagar - OSPCB",,21.8004996,83.8396977,NO2,10,11,10
Odisha,Brajrajnagar,"GM Office, Brajrajnagar - OSPCB",,21.8004996,83.8396977,OZONE,2,105,79
Odisha,Byasanagar,"Ferro Chrome Colony, Byasanagar - OSPCB",,20.94185,86.1151,NH3,1,3,2
Odisha,Byasanagar,"Ferro Chrome Colony, Byasanagar - OSPCB",,20.94185,86.1151,SO2,2,50,8
Maharashtra,Thane,"Kasarvadavali, Thane - MPCB",,19.26777,72.97182,PM10,91,181,114
Maharashtra,Thane,"Kasarvadavali, Thane - MPCB",,19.26777,72.97182,NO2,17,91,51
Maharashtra,Thane,"Upvan Fort, Thane - MPCB",,19.222279,72.957979,CO,6,47,21
Maharashtra,Ulhasnagar,"Sidhi Vinayak Nagar, Ulhasnagar - MPCB",,19.235581,73.159121,CO,5,44,12
Maharashtra,Virar,"Bolinj, Virar - MPCB",,19.445821,72.7988231,PM2.5,28,276,91
Odisha,Rairangpur,"Divisional Forest Office, Rairangpur - OSPCB",,22.265816,86.174829,PM10,43,102,72
Odisha,Rairangpur,"Divisional Forest Office, Rairangpur - OSPCB",,22.265816,86.174829,CO,9,33,14
Odisha,Rourkela,"Fertilizer Township, Rourkela - OSPCB",,22.18972222,84.86277778,PM10,91,118,95
Punjab,Mandi Gobindgarh,"RIMT University, Mandi Gobindgarh - PPCB",,30.649961,76.331442,PM2.5,26,137,72
Punjab,Mandi Gobindgarh,"RIMT University, Mandi Gobindgarh - PPCB",,30.649961,76.331442,PM10,31,128,83
Punjab,Mandi Gobindgarh,"RIMT University, Mandi Gobindgarh - PPCB",,30.649961,76.331442,CO,56,102,75
Punjab,Mandi Gobindgarh,"RIMT University, Mandi Gobindgarh - PPCB",,30.649961,76.331442,OZONE,45,51,49
Rajasthan,Baran,"Bamboliya, Baran - RSPCB",,25.106006,76.469948,PM10,48,189,91
Rajasthan,Baran,"Bamboliya, Baran - RSPCB",,25.106006,76.469948,NO2,7,113,33
Rajasthan,Barmer,"Railway Colony, Barmer - RSPCB",,25.747299,71.393989,SO2,7,29,13
Rajasthan,Bharatpur,"Krishna Nagar, Bharatpur - RSPCB",,27.215415,77.50873,PM2.5,26,212,83
Rajasthan,Bhilwara,"Pratap Nagar, Bhilwara - RSPCB",,25.339605,74.618883,SO2,12,80,36
